 17937931 <$PDVVT,2871,67*4D>
 17938082 <$GPRMC,135217.00,A,4703.86001,N,00654.19884,E,82.571,237.64,300706,,,A*56>
 17938082 <$PGRMZ,6696,F,2*05>
 17938082 <$GPGGA,135217.00,4703.86001,N,00654.19884,E,1,8,0.98,2155.1,M,48.0,M,,*5C>
 17938082 <$PDVDV,-7,393,1133,2096,7886,1*4E>
 17938196 <$PDVDS,0,93,8,38*5C>
 17938306 <$PDVDV,-6,394,1133,2094,7887,1*4B>
 17938401 <$PDSWC,20,805008,100,121*57>
 17938468 <$PDVDV,-4,394,1133,2094,7887,1*49>
 17938669 <$PDVDV,-4,395,1133,2094,7887,1*48>
 17938695 <$PDVDS,1,72,8,39*53>
 17938815 <$PFLAU,0,1,2,1,0,,0,,*60>
 17938869 <$PDVDV,-4,395,1133,2094,7887,1*48>
 17938934 <$PDVVT,2872,67*4E>
 17939076 <$GPRMC,135218.00,A,4703.84791,N,00654.17033,E,82.429,238.68,300706,,,A*50>
 17939076 <$PGRMZ,6693,F,2*00>
 17939076 <$GPGGA,135218.00,4703.84791,N,00654.17033,E,1,7,1.18,2154.1,M,48.0,M,,*52>
 17939076 <$PDVDV,-4,396,1133,2094,7887,1*4B>
 17939202 <$PDVDS,-2,112,8,40*44>
 17939319 <$PDVDV,-5,396,1133,2094,7887,1*4A>
 17939470 <$PDVDV,-5,396,1133,2094,7887,1*4A>
 17939672 <$PDVDV,-6,396,1133,2094,7887,1*49>
 17939697 <$PDVDS,-2,115,8,39*4D>
 17939817 <$PFLAU,0,1,2,1,0,,0,,*60>
 17939871 <$PDVDV,-7,396,1133,2093,7888,1*40>
 17939935 <$PDVVT,2872,67*4E>
 17940077 <$GPRMC,135219.00,A,4703.83622,N,00654.14148,E,82.545,239.96,300706,,,A*5A>
 17940078 <$PGRMZ,6689,F,2*0B>
 17940078 <$GPGGA,135219.00,4703.83622,N,00654.14148,E,1,7,1.18,2152.4,M,48.0,M,,*50>
 17940078 <$PDVDV,-7,395,1133,2093,7888,1*43>
 17940282 <$PDVDS,-1,104,8,39*4E>
 17940282 <$PDVDV,-7,395,1133,2093,7888,1*43>
 17940472 <$PDVDV,-7,394,1133,2093,7888,1*42>
 17940672 <$PDVDV,-8,394,1133,2092,7889,1*4D>
 17940702 <$PDVDS,-1,103,8,38*48>
 17940815 <$PFLAU,0,1,2,1,0,,0,,*60>
 17940873 <$PDVDV,-8,393,1133,2092,7889,1*4A>
 17940936 <$PDVVT,2872,67*4E>
 17941093 <$GPRMC,135220.00,A,4703.82486,N,00654.11229,E,82.628,240.68,300706,,,A*5B>
 17941093 <$PGRMZ,6689,F,2*0B>
 17941093 <$GPGGA,135220.00,4703.82486,N,00654.11229,E,1,7,1.18,2151.2,M,48.0,M,,*53>
 17941093 <$PDVDV,-9,393,1133,2092,7889,1*4B>
 17941209 <$PDVDS,-2,104,8,38*4C>
 17941330 <$PDVDV,-10,393,1133,2091,7890,1*78>
 17941475 <$PDVDV,-11,392,1133,2091,7890,1*78>
 17941673 <$PDVDV,-11,392,1133,2091,7890,1*78>
 17941699 <$PDVDS,0,91,8,39*5F>
 17941815 <$PFLAU,0,1,2,1,0,,0,,*60>
 17941873 <$PDVDV,-12,392,1133,2091,7890,1*7B>
 17941938 <$PDVVT,2872,67*4E>
 17941981 <$GPRMC,135221.00,A,4703.81386,N,00654.08303,E,81.902,241.87,300706,,,A*5B>
 17942081 <$PGRMZ,6686,F,2*04>
 17942081 <$GPGGA,135221.00,4703.81386,N,00654.08303,E,1,7,1.18,2149.8,M,48.0,M,,*54>
 17942081 <$PDVDV,-13,391,1133,2090,7891,1*79>
 17942202 <$PDVDS,0,89,8,39*56>
 17942324 <$PDVDV,-14,391,1133,2090,7891,1*7E>
 17942474 <$PDVDV,-16,391,1133,2090,7891,1*7C>
 17942674 <$PDVDV,-19,391,1133,2090,7891,1*73>
 17942701 <$PDVDS,-1,93,8,40*7F>
 17942815 <$PFLAU,0,1,2,1,0,,0,,*60>
 17942874 <$PDVDV,-21,390,1133,2089,7892,1*72>
 17942939 <$PDVVT,2872,67*4E>
 17943067 <$GPRMC,135222.00,A,4703.80323,N,00654.05355,E,81.651,243.03,300706,,,A*5F>
 17943067 <$PGRMZ,6679,F,2*04>
 17943067 <$GPGGA,135222.00,4703.80323,N,00654.05355,E,1,6,1.73,2147.8,M,48.0,M,,*55>
 17943169 <$PDVDV,-23,390,1133,2089,7892,1*70>
 17943276 <$PDVDS,-2,104,8,39*4D>
 17943276 <$PDVDV,-24,389,1133,2089,7892,1*7F>
 17943475 <$PDVDV,-24,389,1133,2089,7892,1*7F>
 17943547 <$PDSWC,20,805008,100,121*57>
 17943677 <$PDVDV,-24,388,1133,2088,7893,1*7E>
 17943706 <$PDVDS,-1,101,8,39*4B>
 17943814 <$PFLAU,0,1,2,1,0,,0,,*60>
 17943877 <$PDVDV,-24,388,1133,2088,7893,1*7E>
 17943943 <$PDVVT,2872,67*4E>
 17944070 <$GPRMC,135223.00,A,4703.79288,N,00654.02377,E,82.622,243.55,300706,,,A*5B>
 17944070 <$PGRMZ,6676,F,2*0B>
 17944070 <$GPGGA,135223.00,4703.79288,N,00654.02377,E,1,6,1.74,2145.0,M,48.0,M,,*58>
 17944170 <$PDVDV,-23,388,1133,2088,7893,1*79>
 17944271 <$PDVDS,-1,106,8,39*4C>
 17944278 <$PDVDV,-21,388,1133,2087,7894,1*73>
 17944481 <$PDVDV,-20,389,1133,2087,7894,1*73>
 17944679 <$PDVDV,-19,390,1133,2086,7895,1*71>
 17944705 <$PDVDS,0,92,8,38*5D>
 17944815 <$PFLAU,0,1,2,1,0,,0,,*60>
 17944879 <$PDVDV,-17,391,1133,2086,7895,1*7E>
 17944952 <$PDVVT,2872,67*4E>
 17944996 <$GPRMC,135224.00,A,4703.78278,N,00653.99362,E,82.532,244.52,300706,,,A*51>
 17944996 <$PGRMZ,6662,F,2*0E>
 17945099 <$GPGGA,135224.00,4703.78278,N,00653.99362,E,1,6,1.74,2142.5,M,48.0,M,,*52>
 17945099 <$PDVDV,-15,392,1133,2086,7895,1*7F>
 17945240 <$PDVDS,0,88,8,38*56>
 17945356 <$PDVDV,-13,394,1133,2085,7896,1*7F>
 17945483 <$PDVDV,-13,395,1133,2085,7896,1*7E>
 17945682 <$PDVDV,-14,396,1133,2084,7897,1*7A>
 17945707 <$PDVDS,-1,103,8,39*49>
 17945815 <$PFLAU,0,1,2,1,0,,0,,*60>
 17945881 <$PDVDV,-14,397,1133,2084,7897,1*7B>
 17945947 <$PDVVT,2872,67*4E>
 17945977 <$GPRMC,135225.00,A,4703.77304,N,00653.96321,E,82.748,245.41,300706,,,A*51>
 17946080 <$PGRMZ,6652,F,2*0D>
 17946080 <$GPGGA,135225.00,4703.77304,N,00653.96321,E,1,6,1.74,2139.5,M,48.0,M,,*52>
 17946080 <$PDVDV,-15,397,1133,2084,7897,1*7A>
 17946286 <$PDVDS,-3,123,8,39*49>
 17946287 <$PDVDV,-16,397,1133,2083,7898,1*71>
 17946485 <$PDVDV,-17,397,1133,2083,7898,1*70>
 17946683 <$PDVDV,-17,396,1132,2082,7899,1*70>
 17946708 <$PDVDS,0,87,8,39*58>
 17946814 <$PFLAU,0,1,2,1,0,,0,,*60>
 17946883 <$PDVDV,-18,396,1132,2082,7899,1*7F>
 17946949 <$PDVVT,2872,67*4E>
 17947072 <$GPRMC,135226.00,A,4703.76352,N,00653.93248,E,83.378,245.80,300706,,,A*50>
 17947072 <$PGRMZ,6642,F,2*0C>
 17947072 <$GPGGA,135226.00,4703.76352,N,00653.93248,E,1,6,1.74,2136.5,M,48.0,M,,*57>
 17947172 <$PDVDV,-18,396,1132,2081,7900,1*7D>
 17947277 <$PDVDS,-2,120,8,39*4B>
 17947346 <$PDVDV,-18,396,1132,2080,7901,1*7D>
 17947485 <$PDVDV,-17,397,1132,2080,7901,1*73>
 17947701 <$PDVDV,-15,398,1132,2079,7902,1*7B>
 17947714 <$PDVDS,-2,123,8,39*48>
 17947814 <$PFLAU,0,1,2,1,0,,0,,*60>
 17947885 <$PDVDV,-12,399,1132,2079,7902,1*7D>
 17947951 <$PDVVT,2872,67*4E>
 17948061 <$GPRMC,135227.00,A,4703.75405,N,00653.90147,E,83.811,245.86,300706,,,A*5A>
 17948062 <$PGRMZ,6638,F,2*01>
 17948062 <$GPGGA,135227.00,4703.75405,N,00653.90147,E,1,7,1.18,2133.8,M,48.0,M,,*5C>
 17948162 <$PDVDV,-9,401,1132,2078,7903,1*41>
 17948263 <$PDVDS,-1,109,8,39*43>
 17948344 <$PDVDV,-7,402,1132,2078,7903,1*4C>
 17948486 <$PDVDV,-5,404,1132,2077,7904,1*40>
 17948700 <$PDVDV,-3,406,1132,2077,7904,1*44>
 17948701 <$PDSWC,20,805008,100,121*57>
 17948712 <$PDVDS,0,88,8,39*57>
 17948817 <$PFLAU,0,1,2,1,0,,0,,*60>
 17948886 <$PDVDV,-3,407,1132,2076,7905,1*45>
 17949012 <$PDVVT,2872,67*4E>
 17949012 <$GPRMC,135228.00,A,4703.74458,N,00653.87040,E,83.775,246.08,300706,,,A*54>
 17949012 <$PGRMZ,6638,F,2*01>
 17949112 <$GPGGA,135228.00,4703.74458,N,00653.87040,E,1,7,1.18,2131.7,M,48.0,M,,*57>
 17949112 <$PDVDV,-3,408,1132,2076,7905,1*4A>
 17949218 <$PDVDS,-1,108,8,39*42>
 17949319 <$PDVDV,-4,410,1132,2075,7906,1*44>
 17949489 <$PDVDV,-4,410,1132,2075,7906,1*44>
 17949686 <$PDVDV,-4,411,1132,2075,7906,1*45>
 17949714 <$PDVDS,-1,105,8,40*41>
 17949815 <$PFLAU,0,1,2,1,0,,0,,*60>
 17949886 <$PDVDV,-4,411,1132,2074,7907,1*45>
 17949968 <$PDVVT,2873,67*4F>
 17950069 <$GPRMC,135229.00,A,4703.73553,N,00653.83929,E,83.213,247.36,300706,,,A*53>
 17950069 <$PGRMZ,6628,F,2*00>
 17950069 <$GPGGA,135229.00,4703.73553,N,00653.83929,E,1,7,1.18,2129.9,M,48.0,M,,*5E>
 17950169 <$PDVDV,-5,411,1132,2074,7907,1*44>
 17950270 <$PDVDS,0,93,8,40*53>
 17950295 <$PDVDV,-6,411,1132,2074,7907,1*47>
 17950489 <$PDVDV,-7,411,1132,2074,7907,1*46>
 17950687 <$PDVDV,-9,411,1132,2073,7908,1*40>
 17950717 <$PDVDS,0,87,8,40*56>
 17950815 <$PFLAU,0,1,2,1,0,,0,,*60>
 17950887 <$PDVDV,-11,411,1132,2073,7908,1*79>
 17950957 <$PDVVT,2873,67*4F>
 17951064 <$GPRMC,135230.00,A,4703.72698,N,00653.80809,E,82.734,248.35,300706,,,A*53>
 17951065 <$PGRMZ,6624,F,2*0C>
 17951065 <$GPGGA,135230.00,4703.72698,N,00653.80809,E,1,7,1.18,2128.4,M,48.0,M,,*5F>
 17951165 <$PDVDV,-13,410,1132,2073,7908,1*7A>
 17951266 <$PDVDS,-2,112,8,40*44>
 17951288 <$PDVDV,-14,409,1132,2073,7908,1*75>
 17951491 <$PDVDV,-17,408,1132,2072,7909,1*77>
 17951689 <$PDVDV,-19,407,1132,2072,7909,1*76>
 17951717 <$PDVDS,-1,102,8,39*48>
 17951815 <$PFLAU,0,1,2,1,0,,0,,*60>
 17951888 <$PDVDV,-20,406,1132,2072,7909,1*7D>
 17951958 <$PDVVT,2873,67*4F>
 17952067 <$GPRMC,135231.00,A,4703.71880,N,00653.77689,E,82.392,249.35,300706,,,A*51>
 17952068 <$PGRMZ,6618,F,2*03>
 17952068 <$GPGGA,135231.00,4703.71880,N,00653.77689,E,1,7,1.18,2126.8,M,48.0,M,,*56>
 17952168 <$PDVDV,-20,406,1132,2072,7909,1*7D>
 17952269 <$PDVDS,0,97,8,39*59>
 17952344 <$PDVDV,-18,405,1132,2071,7910,1*7E>
 17952492 <$PDVDV,-18,405,1132,2071,7910,1*7E>
 17952690 <$PDVDV,-17,405,1132,2071,7910,1*71>
 17952716 <$PDVDS,0,82,8,39*5D>
 17952814 <$PFLAU,0,1,2,1,0,,0,,*60>
 17952889 <$PDVDV,-17,406,1132,2071,7910,1*72>
 17952958 <$PDVVT,2873,67*4F>
 17953096 <$GPRMC,135232.00,A,4703.71091,N,00653.74546,E,82.550,250.27,300706,,,A*5A>
 17953096 <$PGRMZ,6607,F,2*0D>
 17953096 <$GPGGA,135232.00,4703.71091,N,00653.74546,E,1,7,1.18,2125.1,M,48.0,M,,*54>
 17953096 <$PDVDV,-16,406,1132,2070,7911,1*73>
 17953217 <$PDVDS,1,75,8,40*5A>
 17953330 <$PDVDV,-16,407,1132,2070,7911,1*72>
 17953494 <$PDVDV,-17,407,1132,2070,7911,1*73>
 17953691 <$PDVDV,-19,407,1132,2070,7911,1*7D>
 17953719 <$PDVDS,0,100,8,40*68>
 17953814 <$PFLAU,0,1,2,1,0,,0,,*60>
 17953834 <$PDSWC,20,805008,100,121*57>
 17953891 <$PDVDV,-20,407,1132,2070,7911,1*77>
 17953960 <$PDVVT,2873,67*4F>
 17954083 <$GPRMC,135233.00,A,4703.70337,N,00653.71399,E,82.085,251.16,300706,,,A*5A>
 17954083 <$PGRMZ,6601,F,2*0B>
 17954083 <$GPGGA,135233.00,4703.70337,N,00653.71399,E,1,7,1.18,2122.2,M,48.0,M,,*5E>
 17954183 <$PDVDV,-21,407,1132,2068,7912,1*7C>
 17954284 <$PDVDS,0,92,8,40*52>
 17954291 <$PDVDV,-22,407,1132,2068,7912,1*7F>
 17954572 <$PDVDV,-23,407,1132,2068,7912,1*7E>
 17954692 <$PDVDV,-24,407,1132,2067,7913,1*77>
 17954719 <$PDVDS,-1,105,8,40*41>
 17954814 <$PFLAU,0,1,2,1,0,,0,,*60>
 17954892 <$PDVDV,-23,407,1132,2067,7913,1*70>
 17954957 <$PDVVT,2873,67*4F>
 17955073 <$GPRMC,135234.00,A,4703.69597,N,00653.68223,E,82.651,251.92,300706,,,A*52>
 17955073 <$PGRMZ,6590,F,2*00>
 17955073 <$GPGGA,135234.00,4703.69597,N,00653.68223,E,1,8,1.08,2117.9,M,48.0,M,,*56>
 17955174 <$PDVDV,-22,407,1132,2066,7914,1*77>
 17955275 <$PDVDS,-1,114,8,40*41>
 17955290 <$PDVDV,-21,407,1132,2065,7915,1*76>
 17955497 <$PDVDV,-20,408,1132,2065,7915,1*78>
 17955695 <$PDVDV,-20,408,1132,2064,7916,1*7A>
 17955720 <$PDVDS,-1,113,8,39*48>
 17955814 <$PFLAU,0,1,2,1,0,,0,,*60>
 17955894 <$PDVDV,-19,409,1131,2063,7917,1*74>
 17955964 <$PDVVT,2873,67*4F>
 17956065 <$GPRMC,135235.00,A,4703.68890,N,00653.65005,E,83.320,252.96,300706,,,A*56>
 17956065 <$PGRMZ,6580,F,2*01>
 17956065 <$GPGGA,135235.00,4703.68890,N,00653.65005,E,1,8,1.08,2113.5,M,48.0,M,,*5F>
 17956165 <$PDVDV,-19,409,1131,2063,7917,1*74>
 17956266 <$PDVDS,0,104,8,39*62>
 17956290 <$PDVDV,-19,410,1131,2062,7918,1*72>
 17956497 <$PDVDV,-20,411,1131,2061,7919,1*7B>
 17956694 <$PDVDV,-19,412,1131,2061,7919,1*72>
 17956722 <$PDVDS,-1,104,8,39*4E>
 17956814 <$PFLAU,0,1,2,1,0,,0,,*60>
 17956894 <$PDVDV,-18,412,1131,2060,7920,1*78>
 17956960 <$PDVVT,2873,67*4F>
 17956993 <$GPRMC,135236.00,A,4703.68229,N,00653.61753,E,83.082,254.56,300706,,,A*5C>
 17956993 <$PGRMZ,6560,F,2*0F>
 17957097 <$GPGGA,135236.00,4703.68229,N,00653.61753,E,1,7,1.13,2109.9,M,48.0,M,,*56>
 17957097 <$PDVDV,-18,413,1131,2059,7921,1*72>
 17957223 <$PDVDS,-1,113,8,39*48>
 17957330 <$PDVDV,-17,415,1131,2059,7921,1*7B>
 17957500 <$PDVDV,-17,416,1131,2058,7922,1*7A>
 17957695 <$PDVDV,-16,417,1131,2057,7923,1*74>
 17957722 <$PDVDS,-1,105,8,39*4F>
 17957814 <$PFLAU,0,1,2,1,0,,0,,*60>
 17957895 <$PDVDV,-15,418,1131,2057,7923,1*78>
 17958076 <$GPRMC,135237.00,A,4703.67632,N,00653.58483,E,83.371,255.95,300706,,,A*59>
 17958077 <$PDVVT,2874,67*48>
 17958077 <$PGRMZ,6549,F,2*04>
 17958077 <$GPGGA,135237.00,4703.67632,N,00653.58483,E,1,7,1.13,2107.0,M,48.0,M,,*55>
 17958177 <$PDVDV,-15,418,1131,2056,7924,1*7E>
 17958278 <$PDVDS,0,98,8,39*56>
 17958306 <$PDVDV,-16,419,1131,2055,7925,1*7E>
 17958498 <$PDVDV,-17,420,1131,2055,7925,1*75>
 17958696 <$PDVDV,-18,420,1131,2054,7926,1*78>
 17958722 <$PDVDS,0,95,8,39*5B>
 17958814 <$PFLAU,0,1,2,1,0,,0,,*60>
 17958897 <$PDVDV,-18,420,1131,2054,7926,1*78>
 17959072 <$GPRMC,135238.00,A,4703.67085,N,00653.55195,E,83.276,256.81,300706,,,A*53>
 17959072 <$PDSWC,20,805008,100,121*57>
 17959073 <$PDVVT,2874,67*48>
 17959073 <$PGRMZ,6549,F,2*04>
 17959073 <$GPGGA,135238.00,4703.67085,N,00653.55195,E,1,7,1.13,2104.5,M,48.0,M,,*59>
 17959173 <$PDVDV,-19,420,1131,2053,7927,1*7F>
 17959274 <$PDVDS,-2,122,8,39*49>
 17959297 <$PDVDV,-19,419,1131,2053,7927,1*75>
 17959500 <$PDVDV,-20,419,1131,2052,7928,1*71>
 17959698 <$PDVDV,-20,419,1131,2052,7928,1*71>
 17959725 <$PDVDS,-1,110,8,39*4B>
 17959814 <$PFLAU,0,1,2,1,0,,0,,*60>
 17959898 <$PDVDV,-20,418,1131,2051,7929,1*72>
 17960069 <$GPRMC,135239.00,A,4703.66591,N,00653.51917,E,82.465,258.18,300706,,,A*5E>
 17960069 <$PDVVT,2874,67*48>
 17960069 <$PGRMZ,6549,F,2*04>
 17960069 <$GPGGA,135239.00,4703.66591,N,00653.51917,E,1,7,1.13,2102.5,M,48.0,M,,*59>
 17960170 <$PDVDV,-21,418,1131,2051,7929,1*73>
 17960295 <$PDVDS,-1,114,8,38*4E>
 17960295 <$PDVDV,-23,417,1131,2050,7930,1*77>
 17960497 <$PDVDV,-24,416,1131,2050,7930,1*71>
 17960697 <$PDVDV,-25,416,1131,2049,7931,1*79>
 17960725 <$PDVDS,-1,108,8,38*43>
 17960814 <$PFLAU,0,1,2,1,0,,0,,*60>
 17960898 <$PDVDV,-26,414,1131,2049,7931,1*78>
 17961091 <$PDVVT,2874,67*48>
 17961091 <$GPRMC,135240.00,A,4703.66158,N,00653.48651,E,81.442,259.48,300706,,,A*56>
 17961091 <$PGRMZ,6546,F,2*0B>
 17961091 <$GPGGA,135240.00,4703.66158,N,00653.48651,E,1,7,1.13,2102.0,M,48.0,M,,*56>
 17961193 <$PDVDV,-27,413,1131,2048,7932,1*7C>
 17961225 <$PDVDS,0,87,8,38*59>
 17961330 <$PDVDV,-27,412,1131,2048,7932,1*7D>
 17961498 <$PDVDV,-28,411,1131,2048,7932,1*71>
 17961698 <$PDVDV,-29,410,1131,2048,7932,1*71>
 17961725 <$PDVDS,1,77,8,38*57>
 17961815 <$PFLAU,0,1,2,1,0,,0,,*60>
 17961900 <$PDVDV,-29,409,1131,2047,7933,1*77>
 17962070 <$PDVVT,2874,67*48>
 17962071 <$GPRMC,135241.00,A,4703.65778,N,00653.45411,E,80.503,260.74,300706,,,A*5B>
 17962071 <$PGRMZ,6546,F,2*0B>
 17962071 <$GPGGA,135241.00,4703.65778,N,00653.45411,E,1,7,1.13,2101.3,M,48.0,M,,*5B>
 17962171 <$PDVDV,-29,408,1131,2047,7933,1*76>
 17962303 <$PDVDS,-2,123,8,39*48>
 17962304 <$PDVDV,-28,408,1131,2047,7933,1*77>
 17962500 <$PDVDV,-25,407,1131,2047,7933,1*75>
 17962700 <$PDVDV,-24,407,1131,2047,7933,1*74>
 17962725 <$PDVDS,-1,114,8,39*4F>
 17962822 <$PFLAU,0,1,2,1,0,,0,,*60>
 17962898 <$PDVDV,-22,407,1131,2047,7933,1*72>
 17963067 <$PDVVT,2875,67*49>
 17963068 <$GPRMC,135242.00,A,4703.65438,N,00653.42190,E,80.074,261.40,300706,,,A*57>
 17963068 <$PGRMZ,6539,F,2*03>
 17963068 <$GPGGA,135242.00,4703.65438,N,00653.42190,E,1,7,1.13,2099.6,M,48.0,M,,*51>
 17963168 <$PDVDV,-21,407,1131,2046,7934,1*77>
 17963269 <$PDVDS,-1,107,8,39*4D>
 17963299 <$PDVDV,-19,408,1131,2046,7934,1*73>
 17963497 <$PDVDV,-18,408,1131,2046,7934,1*72>
 17963697 <$PDVDV,-17,408,1131,2046,7934,1*7D>
 17963725 <$PDVDS,-2,112,8,39*4A>
 17963817 <$PFLAU,0,1,2,1,0,,0,,*60>
 17963897 <$PDVDV,-17,408,1131,2046,7934,1*7D>
 17964070 <$GPRMC,135243.00,A,4703.65112,N,00653.38982,E,79.698,261.28,300706,,,A*51>
 17964070 <$PDVVT,2875,67*49>
 17964070 <$PGRMZ,6539,F,2*03>
 17964070 <$GPGGA,135243.00,4703.65112,N,00653.38982,E,1,7,1.13,2098.9,M,48.0,M,,*55>
 17964170 <$PDVDV,-17,408,1130,2045,7935,1*7E>
 17964171 <$PDSWC,20,805008,100,121*57>
 17964271 <$PDVDS,-2,113,8,39*4B>
 17964300 <$PDVDV,-18,407,1130,2045,7935,1*7E>
 17964498 <$PDVDV,-18,407,1130,2045,7935,1*7E>
 17964698 <$PDVDV,-17,407,1130,2045,7935,1*71>
 17964725 <$PDVDS,0,82,8,39*5D>
 17964815 <$PFLAU,0,1,2,1,0,,0,,*60>
 17964898 <$PDVDV,-15,406,1130,2044,7936,1*70>
 17964993 <$GPRMC,135244.00,A,4703.64779,N,00653.35796,E,78.814,261.04,300706,,,A*5F>
 17964993 <$PDVVT,2875,67*49>
 17964993 <$PGRMZ,6539,F,2*03>
 17965096 <$GPGGA,135244.00,4703.64779,N,00653.35796,E,1,7,1.13,2099.3,M,48.0,M,,*55>
 17965096 <$PDVDV,-14,406,1130,2044,7936,1*71>
 17965310 <$PDVDS,-1,108,8,39*42>
 17965310 <$PDVDV,-13,406,1130,2044,7936,1*76>
 17965499 <$PDVDV,-12,405,1130,2044,7936,1*74>
 17965700 <$PDVDV,-13,405,1130,2044,7936,1*75>
 17965725 <$PDVDS,-1,98,8,39*7A>
 17965813 <$PFLAU,0,1,2,1,0,,0,,*60>
 17965898 <$PDVDV,-13,404,1130,2044,7936,1*74>
 17966074 <$GPRMC,135245.00,A,4703.64437,N,00653.32651,E,77.724,260.69,300706,,,A*53>
 17966075 <$PDVVT,2875,67*49>
 17966075 <$PGRMZ,6542,F,2*0F>
 17966075 <$GPGGA,135245.00,4703.64437,N,00653.32651,E,1,7,1.13,2099.8,M,48.0,M,,*5B>
 17966175 <$PDVDV,-13,403,1130,2044,7936,1*73>
 17966276 <$PDVDS,-2,112,8,39*4A>
 17966295 <$PDVDV,-13,402,1130,2044,7936,1*72>
 17966498 <$PDVDV,-13,401,1130,2044,7936,1*71>
 17966699 <$PDVDV,-14,400,1130,2044,7936,1*77>
 17966726 <$PDVDS,-2,104,8,39*4D>
 17966813 <$PFLAU,0,1,2,1,0,,0,,*60>
 17966899 <$PDVDV,-13,399,1130,2044,7936,1*77>
 17967069 <$GPRMC,135246.00,A,4703.64064,N,00653.29542,E,77.347,259.08,300706,,,A*55>
 17967069 <$PDVVT,2875,67*49>
 17967069 <$PGRMZ,6546,F,2*0B>
 17967070 <$GPGGA,135246.00,4703.64064,N,00653.29542,E,1,7,1.13,2100.7,M,48.0,M,,*5F>
 17967170 <$PDVDV,-14,397,1130,2044,7936,1*7E>
 17967271 <$PDVDS,-2,108,8,38*40>
 17967301 <$PDVDV,-14,396,1130,2044,7936,1*7F>
 17967500 <$PDVDV,-15,395,1130,2044,7936,1*7D>
 17967702 <$PDVDV,-15,393,1130,2044,7936,1*7B>
 17967727 <$PDVDS,-1,99,8,38*7A>
 17967814 <$PFLAU,0,1,2,1,0,,0,,*60>
 17967900 <$PDVDV,-14,392,1130,2044,7936,1*7B>
 17968070 <$GPRMC,135247.00,A,4703.63636,N,00653.26472,E,76.588,257.55,300706,,,A*5D>
 17968070 <$PDVVT,2875,67*49>
 17968070 <$PGRMZ,6549,F,2*04>
 17968070 <$GPGGA,135247.00,4703.63636,N,00653.26472,E,1,7,1.13,2101.8,M,48.0,M,,*5B>
 17968170 <$PDVDV,-14,391,1130,2044,7936,1*78>
 17968271 <$PDVDS,0,80,8,38*5E>
 17968533 <$PDVDV,-14,390,1130,2045,7935,1*7B>
 17968534 <$PFLAE,A,0,0*33>
 17968534 <$PDVDV,-15,389,1130,2045,7935,1*72>
 17968700 <$PDVDV,-14,388,1130,2045,7935,1*72>
 17968729 <$PDVDS,-2,98,8,39*79>
 17968814 <$PFLAU,0,1,2,1,0,,0,,*60>
 17968899 <$PDVDV,-14,388,1130,2045,7935,1*72>
 17969098 <$PDVVT,2875,67*49>
 17969099 <$GPRMC,135248.00,A,4703.63153,N,00653.23444,E,76.167,256.08,300706,,,A*5A>
 17969099 <$PGRMZ,6549,F,2*04>
 17969099 <$GPGGA,135248.00,4703.63153,N,00653.23444,E,1,7,1.13,2102.3,M,48.0,M,,*58>
 17969099 <$PDVDV,-14,387,1130,2045,7935,1*7D>
 17969312 <$PDVDS,-2,99,8,39*78>
 17969312 <$PDSWC,20,805008,100,121*57>
 17969313 <$PDVDV,-14,386,1130,2045,7935,1*7C>
 17969500 <$PDVDV,-14,384,1130,2045,7935,1*7E>
 17969701 <$PDVDV,-14,383,1130,2045,7935,1*79>
 17969728 <$PDVDS,-3,110,8,39*49>
 17969814 <$PFLAU,0,1,2,1,0,,0,,*60>
 17969902 <$PDVDV,-14,382,1130,2045,7935,1*78>
 17970084 <$GPRMC,135249.00,A,4703.62633,N,00653.20458,E,75.682,255.21,300706,,,A*52>
 17970085 <$PDVVT,2875,67*49>
 17970085 <$PGRMZ,6549,F,2*04>
 17970085 <$GPGGA,135249.00,4703.62633,N,00653.20458,E,1,7,1.13,2102.4,M,48.0,M,,*50>
 17970185 <$PDVDV,-14,381,1131,2046,7934,1*78>
 17970286 <$PDVDS,-1,90,8,39*72>
 17970306 <$PDVDV,-14,380,1131,2046,7934,1*79>
 17970503 <$PDVDV,-13,379,1131,2046,7934,1*78>
 17970704 <$PDVDV,-12,378,1131,2046,7934,1*78>
 17970729 <$PDVDS,-2,106,8,39*4F>
 17970815 <$PFLAU,0,1,2,1,0,,0,,*60>
 17970904 <$PDVDV,-12,377,1131,2046,7934,1*77>
 17971076 <$GPRMC,135250.00,A,4703.62076,N,00653.17503,E,75.309,253.83,300706,,,A*5E>
 17971077 <$PDVVT,2875,67*49>
 17971077 <$PGRMZ,6549,F,2*04>
 17971077 <$GPGGA,135250.00,4703.62076,N,00653.17503,E,1,7,1.13,2102.6,M,48.0,M,,*56>
 17971179 <$PDVDV,-13,376,1130,2045,7935,1*74>
 17971280 <$PDVDS,-1,87,8,39*74>
 17971329 <$PDVDV,-14,375,1130,2045,7935,1*70>
 17971506 <$PDVDV,-14,374,1130,2045,7935,1*71>
 17971705 <$PDVDV,-15,373,1130,2045,7935,1*77>
 17971731 <$PDVDS,-1,85,8,38*77>
 17971805 <$PFLAA,0,-411,66,78,2,DDAC55,54,,28,0.4,1*70>
 17971826 <$PFLAU,1,1,2,1,0,-82,0,78,454*7C>
 17971905 <$PDVDV,-15,372,1130,2045,7935,1*76>
 17972074 <$GPRMC,135251.00,A,4703.61487,N,00653.14584,E,74.679,253.14,300706,,,A*57>
 17972074 <$PDVVT,2876,67*4A>
 17972074 <$PGRMZ,6553,F,2*0F>
 17972074 <$GPGGA,135251.00,4703.61487,N,00653.14584,E,1,7,1.13,2102.3,M,48.0,M,,*57>
 17972175 <$PDVDV,-15,371,1130,2045,7935,1*75>
 17972276 <$PDVDS,-3,114,8,39*4D>
 17972329 <$PDVDV,-15,370,1130,2045,7935,1*74>
 17972385 <$PFLAA,0,-55,-904,-166,2,DD8C45,35,,34,-2.6,1*18>
 17972505 <$PDVDV,-15,370,1130,2045,7935,1*74>
 17972706 <$PDVDV,-14,369,1130,2045,7935,1*7D>
 17972733 <$PDVDS,-3,108,8,39*40>
 17972831 <$PFLAA,0,-383,124,80,2,DDAC55,54,,28,0.4,1*4C>
 17972847 <$PFLAU,1,1,2,1,0,-91,0,80,440*7C>
 17972907 <$PDVDV,-14,369,1130,2045,7935,1*7D>
 17972993 <$GPRMC,135252.00,A,4703.60877,N,00653.11698,E,74.284,252.71,300706,,,A*59>
 17972994 <$PDVVT,2876,67*4A>
 17972994 <$PGRMZ,6549,F,2*04>
 17973096 <$GPGGA,135252.00,4703.60877,N,00653.11698,E,1,7,1.13,2101.7,M,48.0,M,,*5A>
 17973198 <$PDVDV,-14,368,1130,2045,7935,1*7C>
 17973199 <$PFLAA,0,-13,-848,-167,2,DD8C45,34,,35,-1.9,1*1E>
 17973300 <$PDVDS,-1,90,8,38*73>
 17973311 <$PDVDV,-16,368,1130,2045,7935,1*7E>
 17973508 <$PDVDV,-17,367,1130,2045,7935,1*70>
 17973708 <$PDVDV,-17,367,1130,2045,7935,1*70>
 17973734 <$PDVDS,-1,89,8,38*7B>
 17973831 <$PFLAA,0,-356,182,79,2,DDAC55,54,,28,0.4,1*4E>
 17973847 <$PFLAU,1,1,2,1,0,-99,0,79,428*7C>
 17973911 <$PDVDV,-17,366,1130,2045,7935,1*71>
 17974069 <$GPRMC,135253.00,A,4703.60252,N,00653.08824,E,74.329,252.28,300706,,,A*5E>
 17974070 <$PDVVT,2876,67*4A>
 17974070 <$PGRMZ,6549,F,2*04>
 17974070 <$GPGGA,135253.00,4703.60252,N,00653.08824,E,1,7,1.13,2101.4,M,48.0,M,,*54>
 17974170 <$PDVDV,-18,365,1130,2045,7935,1*7D>
 17974272 <$PDVDS,-2,95,8,38*75>
 17974328 <$PDVDV,-18,365,1130,2045,7935,1*7D>
 17974420 <$PDSWC,20,805008,100,121*57>
 17974509 <$PDVDV,-19,364,1130,2045,7935,1*7D>
 17974529 <$PFLAA,0,28,-791,-168,2,DD8C45,34,,35,-1.8,1*3E>
 17974745 <$PDVDV,-18,364,1130,2045,7935,1*7C>
 17974745 <$PDVDS,-2,100,8,39*49>
 17974831 <$PFLAA,0,-328,240,80,2,DDAC55,54,,28,0.4,1*4C>
 17974848 <$PFLAU,1,1,2,1,0,-108,0,80,415*4D>
 17974911 <$PDVDV,-16,364,1130,2044,7936,1*70>
 17975049 <$GPRMC,135254.00,A,4703.59616,N,00653.05958,E,74.472,251.97,300706,,,A*5E>
 17975049 <$PDVVT,2876,67*4A>
 17975049 <$PGRMZ,6553,F,2*0F>
 17975149 <$GPGGA,135254.00,4703.59616,N,00653.05958,E,1,7,1.13,2100.1,M,48.0,M,,*5E>
 17975149 <$PDVDV,-15,364,1130,2044,7936,1*73>
 17975251 <$PDVDS,-3,114,8,39*4D>
 17975305 <$PFLAA,0,67,-733,-168,2,DD8C45,37,,34,-2.0,1*34>
 17975318 <$PDVDV,-14,364,1130,2044,7936,1*72>
 17975512 <$PDVDV,-13,363,1130,2044,7936,1*72>
 17975713 <$PDVDV,-11,363,1130,2044,7936,1*70>
 17975739 <$PDVDS,-3,115,8,38*4D>
 17975825 <$PFLAU,1,1,2,1,0,24,0,-168,796*4D>
 17975913 <$PDVDV,-11,364,1130,2044,7936,1*77>
 17976055 <$GPRMC,135255.00,A,4703.58972,N,00653.03082,E,74.471,251.50,300706,,,A*53>
 17976055 <$PDVVT,2876,67*4A>
 17976055 <$PGRMZ,6546,F,2*0B>
 17976156 <$GPGGA,135255.00,4703.58972,N,00653.03082,E,1,7,1.13,2098.7,M,48.0,M,,*5D>
 17976156 <$PDVDV,-9,364,1130,2044,7936,1*4E>
 17976258 <$PFLAA,0,108,-675,-164,2,DD8C45,38,,35,0.5,1*27>
 17976259 <$PDVDS,-1,94,8,38*77>
 17976313 <$PDVDV,-7,365,1130,2044,7936,1*41>
 17976512 <$PDVDV,-4,366,1130,2043,7937,1*47>
 17976712 <$PDVDV,-2,367,1130,2043,7937,1*40>
 17976741 <$PDVDS,-3,104,8,38*4D>
 17976826 <$PFLAU,1,1,2,1,0,28,0,-164,747*41>
 17976915 <$PDVDV,-1,368,1130,2043,7937,1*4C>
 17977080 <$GPRMC,135256.00,A,4703.58320,N,00653.00213,E,74.285,251.56,300706,,,A*5F>
 17977081 <$PDVVT,2876,67*4A>
 17977081 <$PGRMZ,6546,F,2*0B>
 17977081 <$GPGGA,135256.00,4703.58320,N,00653.00213,E,1,7,1.13,2098.1,M,48.0,M,,*5C>
 17977181 <$PDVDV,-2,368,1130,2043,7937,1*4F>
 17977282 <$PDVDS,-4,119,8,38*46>
 17977336 <$PDVDV,-3,368,1130,2043,7937,1*4E>
 17977449 <$PFLAA,0,148,-617,-164,2,DD8C45,38,,35,0.9,1*2B>
 17977513 <$PDVDV,-5,368,1130,2042,7938,1*46>
 17977715 <$PDVDV,-5,367,1130,2042,7938,1*49>
 17977742 <$PDVDS,-4,112,8,37*42>
 17977825 <$PFLAU,1,1,2,1,0,32,0,-164,696*47>
 17977917 <$PDVDV,-5,366,1130,2042,7938,1*48>
 17978061 <$GPRMC,135257.00,A,4703.57648,N,00652.97362,E,74.342,250.53,300706,,,A*5C>
 17978062 <$PDVVT,2876,67*4A>
 17978062 <$PGRMZ,6532,F,2*08>
 17978062 <$GPGGA,135257.00,4703.57648,N,00652.97362,E,1,7,1.13,2097.9,M,48.0,M,,*56>
 17978162 <$PDVDV,-6,365,1130,2042,7938,1*48>
 17978263 <$PDVDS,-1,82,8,37*7F>
 17978322 <$PDVDV,-6,365,1130,2042,7938,1*48>
 17978335 <$PFLAA,0,189,-558,-161,2,DD8C45,40,,34,1.5,1*28>
 17978515 <$PDVDV,-6,365,1130,2042,7938,1*48>
 17978697 <$PFLAA,0,-174,422,75,2,DDAC55,1,,27,0.2,1*76>
 17978717 <$PDVDV,-6,365,1130,2041,7939,1*4A>
 17978743 <$PDVDS,-3,105,8,37*43>
 17978825 <$PFLAU,2,1,2,1,0,-138,0,75,496*4C>
 17978919 <$PDVDV,-5,365,1130,2041,7939,1*49>
 17979057 <$GPRMC,135258.00,A,4703.56945,N,00652.94526,E,74.366,249.83,300706,,,A*56>
 17979057 <$PDVVT,2876,67*4A>
 17979057 <$PGRMZ,6529,F,2*02>
 17979158 <$GPGGA,135258.00,4703.56945,N,00652.94526,E,1,7,1.13,2098.1,M,48.0,M,,*58>
 17979158 <$PFLAA,0,228,-500,-161,2,DD8C45,40,,34,1.2,1*2A>
 17979159 <$PDVDV,-4,365,1130,2041,7939,1*48>
 17979259 <$PDVDS,-3,113,8,37*44>
 17979330 <$PDVDV,-4,365,1130,2041,7939,1*48>
 17979517 <$PDVDV,-4,365,1130,2041,7939,1*48>
 17979564 <$PDSWC,20,805008,100,121*57>
 17979718 <$PDVDV,-5,364,1130,2041,7939,1*48>
 17979746 <$PDVDS,-2,93,8,37*7C>
 17979833 <$PFLAA,0,-135,458,74,2,DDAC55,1,,27,0.2,1*7F>
 17979849 <$PFLAU,1,1,2,1,0,-143,0,74,523*4D>
 17979920 <$PDVDV,-5,364,1130,2041,7939,1*48>
 17980053 <$GPRMC,135259.00,A,4703.56196,N,00652.91698,E,74.259,248.90,300706,,,A*5C>
 17980054 <$PGRMZ,6536,F,2*0C>
 17980054 <$PDVVT,2876,67*4A>
 17980154 <$GPGGA,135259.00,4703.56196,N,00652.91698,E,1,6,1.75,2098.3,M,48.0,M,,*5F>
 17980154 <$PDVDV,-5,364,1130,2041,7939,1*48>
 17980255 <$PDVDS,-2,100,8,37*47>
 17980320 <$PDVDV,-4,364,1130,2041,7939,1*49>
 17980519 <$PDVDV,-4,364,1130,2041,7939,1*49>
 17980661 <$PFLAA,0,-96,499,72,2,DDAC55,353,,26,0.8,1*43>
 17980719 <$PDVDV,-4,364,1130,2041,7939,1*49>
 17980749 <$PDVDS,-2,97,8,38*77>
 17980831 <$PFLAA,0,269,-443,-160,2,DD8C45,40,,34,1.2,1*28>
 17980848 <$PFLAU,1,1,2,1,0,-147,0,72,557*4C>
 17980923 <$PDVDV,-4,364,1130,2041,7939,1*49>
 17981077 <$GPRMC,135300.00,A,4703.55427,N,00652.88890,E,73.761,248.28,300706,,,A*59>
 17981077 <$PGRMZ,6539,F,2*03>
 17981077 <$PDVVT,2876,67*4A>
 17981077 <$GPGGA,135300.00,4703.55427,N,00652.88890,E,1,6,1.74,2098.1,M,48.0,M,,*53>
 17981178 <$PDVDV,-4,364,1130,2041,7939,1*49>
 17981279 <$PDVDS,-3,108,8,38*41>
 17981329 <$PDVDV,-4,364,1130,2041,7939,1*49>
 17981523 <$PDVDV,-4,364,1130,2041,7939,1*49>
 17981721 <$PDVDV,-4,363,1130,2041,7939,1*4E>
 17981748 <$PDVDS,-4,113,8,38*4C>
 17981789 <$PFLAA,0,-56,534,72,2,DDAC55,348,,26,0.7,1*4C>
 17981832 <$PFLAA,0,309,-386,-158,2,DD8C45,40,,34,1.2,1*2A>
 17981850 <$PFLAU,1,1,2,1,0,-152,0,72,582*40>
 17981924 <$PDVDV,-3,363,1130,2041,7939,1*49>
 17982063 <$GPRMC,135301.00,A,4703.54643,N,00652.86098,E,73.643,248.18,300706,,,A*55>
 17982064 <$PGRMZ,6542,F,2*0F>
 17982064 <$PDVVT,2876,67*4A>
 17982064 <$GPGGA,135301.00,4703.54643,N,00652.86098,E,1,7,1.18,2097.8,M,48.0,M,,*50>
 17982165 <$PDVDV,-2,363,1130,2041,7939,1*48>
 17982266 <$PDVDS,-4,119,8,37*49>
 17982330 <$PDVDV,-1,362,1130,2041,7939,1*4A>
 17982523 <$PDVDV,-1,362,1130,2041,7939,1*4A>
 17982597 <$PFLAA,0,351,-326,-157,2,DD8C45,44,,33,1.4,1*27>
 17982722 <$PDVDV,-1,362,1130,2041,7939,1*4A>
 17982750 <$PDVDS,-1,87,8,37*7A>
 17982832 <$PFLAA,0,-19,564,72,2,DDAC55,348,,26,0.7,1*42>
 17982849 <$PFLAU,1,1,2,1,0,-156,0,72,603*4E>
 17982928 <$PDVDV,-2,362,1130,2041,7939,1*49>
 17983056 <$GPRMC,135302.00,A,4703.53857,N,00652.83323,E,73.481,247.71,300706,,,A*50>
 17983056 <$PDVVT,2876,67*4A>
 17983056 <$PGRMZ,6539,F,2*03>
 17983157 <$GPGGA,135302.00,4703.53857,N,00652.83323,E,1,7,1.18,2098.4,M,48.0,M,,*5A>
 17983157 <$PDVDV,-3,362,1130,2041,7939,1*48>
 17983158 <$PFLAA,0,390,-268,-157,2,DD8C45,44,,32,1.6,1*22>
 17983259 <$PDVDS,-3,96,8,37*78>
 17983324 <$PDVDV,-5,361,1130,2041,7939,1*4D>
 17983524 <$PDVDV,-8,360,1130,2041,7939,1*41>
 17983724 <$PDVDV,-9,359,1130,2041,7939,1*4A>
 17983752 <$PDVDS,-4,113,8,37*43>
 17983830 <$PFLAA,0,19,594,69,2,DDAC55,348,,26,0.7,1*6A>
 17983846 <$PFLAU,1,1,2,1,0,-159,0,69,635*4E>
 17983927 <$PDVDV,-8,358,1130,2041,7939,1*4A>
 17984056 <$GPRMC,135303.00,A,4703.53034,N,00652.80579,E,73.504,245.74,300706,,,A*5D>
 17984056 <$PDVVT,2877,67*4B>
 17984056 <$PGRMZ,6542,F,2*0F>
 17984157 <$GPGGA,135303.00,4703.53034,N,00652.80579,E,1,7,1.18,2099.1,M,48.0,M,,*58>
 17984158 <$PDVDV,-7,357,1130,2041,7939,1*4A>
 17984258 <$PDVDS,-5,118,8,37*49>
 17984327 <$PDVDV,-6,356,1130,2041,7939,1*4A>
 17984526 <$PDVDV,-6,355,1130,2041,7939,1*49>
 17984709 <$PDSWC,20,805008,100,121*57>
 17984732 <$PDVDV,-6,355,1130,2041,7939,1*49>
 17984755 <$PDVDS,-4,111,8,36*40>
 17984830 <$PFLAA,0,60,622,70,2,DDAC55,348,,26,0.7,1*62>
 17984851 <$PFLAA,0,432,-212,-155,2,DD8C45,44,,32,1.6,1*22>
 17984868 <$PFLAU,0,1,2,1,0,-161,0,70,676*4B>
 17984930 <$PDVDV,-6,354,1130,2041,7939,1*48>
 17985082 <$GPRMC,135304.00,A,4703.52195,N,00652.77860,E,73.157,245.87,300706,,,A*52>
 17985082 <$PDVVT,2877,67*4B>
 17985082 <$PGRMZ,6546,F,2*0B>
 17985082 <$GPGGA,135304.00,4703.52195,N,00652.77860,E,1,7,1.18,2100.4,M,48.0,M,,*5D>
 17985183 <$PDVDV,-6,354,1130,2041,7939,1*48>
 17985284 <$PDVDS,-1,84,8,35*7B>
 17985331 <$PDVDV,-5,353,1130,2041,7939,1*4C>
 17985529 <$PDVDV,-3,353,1130,2041,7939,1*4A>
 17985729 <$PDVDV,-1,353,1130,2041,7939,1*48>
 17985755 <$PDVDS,-2,94,8,37*7B>
 17985831 <$PFLAA,0,471,-155,-158,2,DD8C45,44,,32,1.6,1*28>
 17985848 <$PFLAU,0,1,2,1,0,97,0,-158,542*4C>
 17985933 <$PDVDV,2,354,1130,2042,7938,1*63>
 17986061 <$GPRMC,135305.00,A,4703.51372,N,00652.75166,E,72.337,246.06,300706,,,A*59>
 17986061 <$PGRMZ,6556,F,2*0A>
 17986061 <$PDVVT,2877,67*4B>
 17986061 <$GPGGA,135305.00,4703.51372,N,00652.75166,E,1,7,1.18,2102.2,M,48.0,M,,*5D>
 17986161 <$PDVDV,7,355,1130,2042,7938,1*67>
 17986262 <$PDVDS,-3,115,8,38*4D>
 17986524 <$PDVDV,11,356,1130,2042,7938,1*53>
 17986531 <$PDVDV,15,358,1130,2043,7937,1*57>
 17986730 <$PDVDV,18,360,1130,2043,7937,1*51>
 17986757 <$PDVDS,-1,90,8,38*73>
 17986831 <$PFLAA,0,510,-98,-158,2,DD8C45,44,,32,1.6,1*1E>
 17986848 <$PFLAU,0,1,2,1,0,103,0,-158,568*78>
 17986934 <$PDVDV,20,362,1130,2043,7937,1*58>
 17987058 <$GPRMC,135306.00,A,4703.50569,N,00652.72473,E,72.262,246.96,300706,,,A*59>
 17987058 <$PDVVT,2877,67*4B>
 17987058 <$PGRMZ,6560,F,2*0F>
 17987158 <$GPGGA,135306.00,4703.50569,N,00652.72473,E,1,7,1.18,2103.6,M,48.0,M,,*50>
 17987158 <$PDVDV,21,364,1130,2044,7936,1*59>
 17987259 <$PDVDS,-1,86,8,39*75>
 17987331 <$PDVDV,24,365,1130,2044,7936,1*5D>
 17987531 <$PDVDV,24,367,1130,2044,7936,1*5F>
 17987731 <$PDVDV,23,367,1130,2045,7935,1*5A>
 17987759 <$PDVDS,-8,153,8,39*45>
 17987814 <$PFLAU,0,1,2,1,0,,0,,*60>
 17987938 <$PDVDV,21,367,1130,2045,7935,1*58>
 17988062 <$GPRMC,135307.00,A,4703.49794,N,00652.69765,E,72.246,247.51,300706,,,A*52>
 17988062 <$PGRMZ,6560,F,2*0F>
 17988062 <$PDVVT,2877,67*4B>
 17988062 <$GPGGA,135307.00,4703.49794,N,00652.69765,E,1,7,1.18,2105.5,M,48.0,M,,*52>
 17988162 <$PDVDV,21,367,1130,2045,7935,1*58>
 17988263 <$PDVDS,-2,99,8,38*79>
 17988333 <$PDVDV,21,366,1130,2045,7935,1*59>
 17988532 <$PDVDV,20,365,1131,2046,7934,1*58>
 17988733 <$PDVDV,20,365,1131,2046,7934,1*58>
 17988760 <$PDVDS,-3,105,8,37*43>
 17988814 <$PFLAU,0,1,2,1,0,,0,,*60>
 17988937 <$PDVDV,20,364,1131,2046,7934,1*59>
 17989085 <$GPRMC,135308.00,A,4703.49030,N,00652.67084,E,71.079,247.16,300706,,,A*5C>
 17989086 <$PGRMZ,6566,F,2*09>
 17989086 <$PDVVT,2877,67*4B>
 17989086 <$GPGGA,135308.00,4703.49030,N,00652.67084,E,1,7,1.18,2108.9,M,48.0,M,,*53>
 17989186 <$PDVDV,20,363,1131,2046,7934,1*5E>
 17989287 <$PDVDS,-3,98,8,37*76>
 17989339 <$PDVDV,20,363,1131,2047,7933,1*58>
 17989534 <$PDVDV,19,362,1131,2047,7933,1*53>
 17989734 <$PDVDV,19,362,1131,2048,7932,1*5D>
 17989762 <$PDVDS,-2,96,8,38*76>
 17989814 <$PFLAU,0,1,2,1,0,,0,,*60>
 17989855 <$PDSWC,20,805008,100,121*57>
 17989938 <$PDVDV,18,360,1131,2048,7932,1*5E>
 17990069 <$GPRMC,135309.00,A,4703.48264,N,00652.64469,E,69.627,246.42,300706,,,A*5F>
 17990069 <$PGRMZ,6587,F,2*06>
 17990069 <$PDVVT,2877,67*4B>
 17990069 <$GPGGA,135309.00,4703.48264,N,00652.64469,E,1,7,1.18,2113.0,M,48.0,M,,*57>
 17990169 <$PDVDV,17,360,1131,2049,7931,1*53>
 17990270 <$PDVDS,-2,91,8,38*71>
 17990342 <$PDVDV,16,358,1131,2049,7931,1*59>
 17990536 <$PDVDV,15,357,1131,2050,7930,1*5C>
 17990736 <$PDVDV,15,355,1131,2050,7930,1*5E>
 17990766 <$PDVDS,-6,124,8,37*45>
 17990814 <$PFLAU,0,1,2,1,0,,0,,*60>
 17990939 <$PDVDV,14,354,1131,2051,7929,1*57>
 17991064 <$GPRMC,135310.00,A,4703.47500,N,00652.61918,E,68.120,246.28,300706,,,A*5E>
 17991064 <$PGRMZ,6604,F,2*0E>
 17991064 <$PDVVT,2877,67*4B>
 17991064 <$GPGGA,135310.00,4703.47500,N,00652.61918,E,1,7,1.18,2116.9,M,48.0,M,,*57>
 17991164 <$PDVDV,14,352,1131,2052,7928,1*53>
 17991265 <$PDVDS,-5,114,8,37*45>
 17991338 <$PDVDV,14,350,1131,2052,7928,1*51>
 17991537 <$PDVDV,14,348,1131,2053,7927,1*56>
 17991737 <$PDVDV,14,347,1131,2054,7926,1*5F>
 17991765 <$PDVDS,-5,110,8,36*40>
 17991814 <$PFLAU,0,1,2,1,0,,0,,*60>
 17991940 <$PDVDV,16,345,1131,2054,7926,1*5F>
 17992067 <$GPRMC,135311.00,A,4703.46755,N,00652.59421,E,66.393,246.59,300706,,,A*52>
 17992067 <$PGRMZ,6618,F,2*03>
 17992067 <$PDVVT,2877,67*4B>
 17992067 <$GPGGA,135311.00,4703.46755,N,00652.59421,E,1,7,1.18,2121.6,M,48.0,M,,*52>
 17992168 <$PDVDV,17,344,1131,2055,7925,1*5D>
 17992269 <$PDVDS,-3,94,8,36*7B>
 17992339 <$PDVDV,17,342,1131,2056,7924,1*59>
 17992539 <$PDVDV,17,341,1131,2056,7924,1*5A>
 17992739 <$PDVDV,17,340,1131,2057,7923,1*5D>
 17992766 <$PDVDS,-1,78,8,37*7A>
 17992813 <$PFLAU,0,1,2,1,0,,0,,*60>
 17992944 <$PDVDV,18,339,1131,2058,7922,1*52>
 17993090 <$GPRMC,135312.00,A,4703.46038,N,00652.56985,E,64.547,246.66,300706,,,A*50>
 17993091 <$PGRMZ,6635,F,2*0C>
 17993091 <$PDVVT,2877,67*4B>
 17993091 <$GPGGA,135312.00,4703.46038,N,00652.56985,E,1,7,1.18,2127.0,M,48.0,M,,*51>
 17993503 <$PDVDV,17,338,1131,2059,7921,1*5E>
 17993509 <$PDVDS,-2,83,8,37*7D>
 17993510 <$PDVDV,17,336,1131,2060,7920,1*5B>
 17993580 <$PDVDV,18,335,1131,2061,7919,1*5C>
 17993740 <$PDVDV,17,334,1131,2062,7918,1*50>
 17993768 <$PDVDS,-2,75,8,38*7B>
 17993814 <$PFLAU,0,1,2,1,0,,0,,*60>
 17993944 <$PDVDV,18,333,1131,2063,7917,1*56>
 17994073 <$GPRMC,135313.00,A,4703.45346,N,00652.54599,E,63.636,247.22,300706,,,A*58>
 17994074 <$PGRMZ,6648,F,2*06>
 17994074 <$PDVVT,2877,67*4B>
 17994074 <$GPGGA,135313.00,4703.45346,N,00652.54599,E,1,7,1.18,2130.8,M,48.0,M,,*54>
 17994175 <$PDVDV,18,332,1132,2064,7916,1*52>
 17994276 <$PDVDS,-3,89,8,38*79>
 17994342 <$PDVDV,19,330,1132,2065,7915,1*53>
 17994542 <$PDVDV,19,329,1132,2066,7914,1*59>
 17994742 <$PDVDV,20,328,1132,2067,7913,1*54>
 17994771 <$PDVDS,-2,78,8,37*79>
 17994814 <$PFLAU,0,1,2,1,0,,0,,*60>
 17994945 <$PDVDV,22,328,1132,2068,7912,1*58>
 17995058 <$GPRMC,135314.00,A,4703.44680,N,00652.52213,E,63.241,247.94,300706,,,A*5B>
 17995058 <$PDSWC,20,805008,100,121*57>
 17995059 <$PGRMZ,6662,F,2*0E>
 17995059 <$PDVVT,2877,67*4B>
 17995059 <$GPGGA,135314.00,4703.44680,N,00652.52213,E,1,7,1.18,2133.1,M,48.0,M,,*54>
 17995159 <$PDVDV,24,327,1132,2068,7912,1*51>
 17995272 <$PDVDS,-2,81,8,37*7F>
 17995346 <$PDVDV,25,327,1132,2070,7911,1*5A>
 17995545 <$PDVDV,25,327,1132,2071,7910,1*5A>
 17995745 <$PDVDV,22,327,1132,2071,7910,1*5D>
 17995770 <$PDVDS,-4,94,8,36*7C>
 17995813 <$PFLAU,0,1,2,1,0,,0,,*60>
 17995947 <$PDVDV,18,326,1132,2072,7909,1*5E>
 17996060 <$GPRMC,135315.00,A,4703.44030,N,00652.49846,E,62.638,247.86,300706,,,A*5F>
 17996060 <$PGRMZ,6662,F,2*0E>
 17996060 <$PDVVT,2877,67*4B>
 17996060 <$GPGGA,135315.00,4703.44030,N,00652.49846,E,1,7,1.18,2134.4,M,48.0,M,,*5A>
 17996160 <$PDVDV,13,323,1132,2072,7909,1*50>
 17996282 <$PDVDS,1,27,8,36*5C>
 17996345 <$PDVDV,7,322,1132,2073,7908,1*64>
 17996545 <$PDVDV,1,318,1132,2073,7908,1*6B>
 17996745 <$PDVDV,-4,316,1132,2074,7907,1*45>
 17996773 <$PDVDS,-1,62,8,37*71>
 17996813 <$PFLAU,0,1,2,1,0,,0,,*60>
 17996979 <$PDVDV,-9,313,1132,2074,7907,1*4D>
 17997086 <$GPRMC,135316.00,A,4703.43391,N,00652.47515,E,61.746,247.95,300706,,,A*5F>
 17997086 <$PGRMZ,6655,F,2*0A>
 17997086 <$PDVVT,2877,67*4B>
 17997086 <$GPGGA,135316.00,4703.43391,N,00652.47515,E,1,7,1.18,2133.3,M,48.0,M,,*53>
 17997186 <$PDVDV,-12,309,1132,2074,7907,1*7C>
 17997287 <$PDVDS,-1,69,8,38*75>
 17997352 <$PDVDV,-15,307,1132,2075,7906,1*75>
 17997547 <$PDVDV,-17,305,1132,2075,7906,1*75>
 17997747 <$PDVDV,-18,304,1132,2075,7906,1*7B>
 17997774 <$PDVDS,-1,54,8,40*74>
 17997813 <$PFLAU,0,1,2,1,0,,0,,*60>
 17997961 <$PDVDV,-18,304,1132,2075,7906,1*7B>
 17998068 <$GPRMC,135317.00,A,4703.42742,N,00652.45192,E,62.370,247.03,300706,,,A*51>
 17998068 <$PGRMZ,6638,F,2*01>
 17998068 <$PDVVT,2877,67*4B>
 17998168 <$GPGGA,135317.00,4703.42742,N,00652.45192,E,1,7,1.18,2128.3,M,48.0,M,,*5A>
 17998168 <$PDVDV,-19,304,1132,2074,7907,1*7A>
 17998289 <$PDVDS,-2,88,8,40*76>
 17998349 <$PDVDV,-19,305,1132,2074,7907,1*7B>
 17998548 <$PDVDV,-20,307,1132,2073,7908,1*7B>
 17998749 <$PDVDV,-21,309,1132,2073,7908,1*74>
 17998777 <$PDVDS,-7,122,8,39*4C>
 17998814 <$PFLAU,0,1,2,1,0,,0,,*60>
 17998950 <$PDVDV,-22,311,1132,2072,7909,1*7E>
 17999062 <$GPRMC,135318.00,A,4703.42074,N,00652.42835,E,63.666,247.54,300706,,,A*5E>
 17999063 <$PGRMZ,6607,F,2*0D>
 17999063 <$PDVVT,2877,67*4B>
 17999063 <$GPGGA,135318.00,4703.42074,N,00652.42835,E,1,7,1.18,2120.7,M,48.0,M,,*58>
 17999163 <$PDVDV,-24,313,1132,2071,7910,1*71>
 17999291 <$PDVDS,-5,115,8,37*44>
 17999350 <$PDVDV,-27,316,1132,2070,7911,1*77>
 17999359 <$PFLAE,A,0,0*33>
 17999550 <$PDVDV,-29,318,1132,2067,7913,1*73>
 17999751 <$PDVDV,-30,320,1132,2066,7914,1*76>
 17999778 <$PDVDS,-4,101,8,35*42>
 17999815 <$PFLAU,0,1,2,1,0,,0,,*60>
 17999952 <$PDVDV,-31,322,1132,2065,7915,1*77>
 18000062 <$GPRMC,135319.00,A,4703.41431,N,00652.40392,E,65.432,249.39,300706,,,A*5D>
 18000062 <$PGRMZ,6573,F,2*0D>
 18000062 <$PDVVT,2877,67*4B>
 18000062 <$GPGGA,135319.00,4703.41431,N,00652.40392,E,1,7,1.18,2112.9,M,48.0,M,,*54>
 18000280 <$PDSWC,20,805008,100,121*57>
 18000282 <$PDVDV,-33,323,1131,2063,7917,1*73>
 18000288 <$PDVDS,-4,103,8,34*41>
 18000353 <$PDVDV,-35,326,1131,2062,7918,1*7E>
 18000554 <$PDVDV,-36,328,1131,2060,7920,1*7A>
 18000753 <$PDVDV,-36,330,1131,2059,7921,1*78>
 18000780 <$PDVDS,-3,98,8,35*74>
 18000813 <$PFLAU,0,1,2,1,0,,0,,*60>
 18001074 <$PDVDV,-37,332,1131,2057,7923,1*77>
 18001075 <$GPRMC,135320.00,A,4703.40812,N,00652.37858,E,67.396,250.64,300706,,,A*5D>
 18001075 <$PGRMZ,6556,F,2*0A>
 18001075 <$PDVVT,2877,67*4B>
 18001075 <$GPGGA,135320.00,4703.40812,N,00652.37858,E,1,7,1.18,2105.7,M,48.0,M,,*57>
 18001176 <$PDVDV,-38,333,1131,2056,7924,1*7F>
 18001307 <$PDVDS,-3,101,8,36*46>
 18001351 <$PDVDV,-39,335,1131,2054,7926,1*78>
 18001552 <$PDVDV,-40,336,1131,2053,7927,1*73>
 18001752 <$PDVDV,-41,338,1131,2051,7929,1*70>
 18001780 <$PDVDS,-2,94,8,37*7B>
 18001813 <$PFLAU,0,1,2,1,0,,0,,*60>
 18002057 <$PDVDV,-43,339,1131,2050,7930,1*7A>
 18002058 <$GPRMC,135321.00,A,4703.40200,N,00652.35228,E,68.933,251.13,300706,,,A*51>
 18002058 <$PGRMZ,6536,F,2*0C>
 18002058 <$PDVVT,2877,67*4B>
 18002058 <$GPGGA,135321.00,4703.40200,N,00652.35228,E,1,7,1.18,2098.7,M,48.0,M,,*55>
 18002159 <$PDVDV,-43,341,1131,2049,7931,1*7C>
 18002280 <$PDVDS,-2,93,8,37*7C>
 18002353 <$PDVDV,-43,342,1131,2047,7933,1*73>
 18002553 <$PDVDV,-43,344,1131,2046,7934,1*73>
 18002753 <$PDVDV,-43,345,1130,2045,7935,1*71>
 18002780 <$PDVDS,-3,105,8,38*4C>
 18002813 <$PFLAU,0,1,2,1,0,,0,,*60>
 18003054 <$PDVDV,-43,347,1130,2044,7936,1*71>
 18003055 <$GPRMC,135322.00,A,4703.39563,N,00652.32535,E,70.977,250.31,300706,,,A*5A>
 18003055 <$PGRMZ,6502,F,2*0B>
 18003055 <$PDVVT,2877,67*4B>
 18003055 <$GPGGA,135322.00,4703.39563,N,00652.32535,E,1,7,1.18,2091.1,M,48.0,M,,*59>
 18003156 <$PDVDV,-43,349,1130,2042,7938,1*77>
 18003321 <$PDVDS,-4,119,8,38*46>
 18003354 <$PDVDV,-43,350,1130,2041,7939,1*7D>
 18003554 <$PDVDV,-42,352,1130,2040,7940,1*71>
 18003754 <$PDVDV,-41,354,1130,2038,7942,1*79>
 18003782 <$PDVDS,-3,114,8,37*43>
 18003813 <$PFLAU,0,1,2,1,0,,0,,*60>
 18004056 <$PDVDV,-40,355,1130,2037,7943,1*77>
 18004057 <$GPRMC,135323.00,A,4703.38891,N,00652.29766,E,73.144,249.89,300706,,,A*54>
 18004057 <$PGRMZ,6478,F,2*07>
 18004057 <$PDVVT,2877,67*4B>
 18004057 <$GPGGA,135323.00,4703.38891,N,00652.29766,E,1,7,1.18,2083.7,M,48.0,M,,*52>
 18004163 <$PDVDV,-40,356,1130,2036,7944,1*72>
 18004316 <$PDVDS,-4,120,8,36*42>
 18004356 <$PDVDV,-40,358,1130,2034,7946,1*7C>
 18004556 <$PDVDV,-40,359,1130,2033,7947,1*7B>
 18004756 <$PDVDV,-40,360,1130,2031,7949,1*7D>
 18004784 <$PDVDS,-3,113,8,35*46>
 18004813 <$PFLAU,0,1,2,1,0,,0,,*60>
 18005077 <$PDVDV,-40,362,1130,2030,7950,1*76>
 18005077 <$GPRMC,135324.00,A,4703.38182,N,00652.26929,E,75.094,249.46,300706,,,A*5B>
 18005077 <$PGRMZ,6461,F,2*0F>
 18005077 <$PDVVT,2877,67*4B>
 18005077 <$GPGGA,135324.00,4703.38182,N,00652.26929,E,1,7,1.18,2077.6,M,48.0,M,,*5E>
 18005184 <$PDVDV,-39,364,1130,2029,7951,1*77>
 18005294 <$PDSWC,20,805008,100,121*57>
 18005295 <$PDVDS,-4,124,8,36*46>
 18005356 <$PDVDV,-37,365,1130,2028,7952,1*7A>
 18005558 <$PDVDV,-35,368,1129,2026,7954,1*75>
 18005756 <$PDVDV,-30,369,1129,2025,7955,1*73>
 18005789 <$PDVDS,-5,141,8,36*44>
 18005813 <$PFLAU,0,1,2,1,0,,0,,*60>
 18006067 <$PDVDV,-26,372,1129,2024,7956,1*7C>
 18006068 <$GPRMC,135325.00,A,4703.37450,N,00652.24041,E,76.897,249.48,300706,,,A*5C>
 18006068 <$PGRMZ,6457,F,2*0A>
 18006068 <$PDVVT,2877,67*4B>
 18006068 <$GPGGA,135325.00,4703.37450,N,00652.24041,E,1,7,1.18,2073.6,M,48.0,M,,*5B>
 18006174 <$PDVDV,-24,374,1129,2023,7957,1*7E>
 18006295 <$PDVDS,-6,143,8,36*45>
 18006358 <$PDVDV,-23,376,1129,2022,7958,1*75>
 18006557 <$PDVDV,-22,378,1129,2021,7959,1*78>
 18006757 <$PDVDV,-22,379,1129,2020,7960,1*72>
 18006785 <$PDVDS,-2,111,8,36*46>
 18006813 <$PFLAU,0,1,2,1,0,,0,,*60>
 18007061 <$PDVDV,-22,380,1129,2019,7961,1*7F>
 18007061 <$GPRMC,135326.00,A,4703.36703,N,00652.21109,E,77.398,249.41,300706,,,A*5F>
 18007061 <$PGRMZ,6454,F,2*09>
 18007382 <$PDVVT,2877,67*4B>
 18007384 <$GPGGA,135326.00,4703.36703,N,00652.21109,E,1,7,1.18,2072.5,M,48.0,M,,*56>
 18007385 <$PDVDV,-22,381,1129,2018,7962,1*7C>
 18007393 <$PDVDS,-1,98,8,36*75>
 18007421 <$PDVDV,-22,382,1129,2018,7962,1*7F>
 18007559 <$PDVDV,-21,382,1129,2017,7963,1*72>
 18007759 <$PDVDV,-19,382,1129,2017,7963,1*79>
 18007788 <$PDVDS,-2,113,8,37*45>
 18007813 <$PFLAU,0,1,2,1,0,,0,,*60>
 18008062 <$PDVDV,-15,383,1129,2016,7964,1*72>
 18008063 <$GPRMC,135327.00,A,4703.35964,N,00652.18178,E,76.646,250.15,300706,,,A*50>
 18008063 <$PGRMZ,6457,F,2*0A>
 18008063 <$PDVVT,2878,67*44>
 18008063 <$GPGGA,135327.00,4703.35964,N,00652.18178,E,1,7,1.18,2072.9,M,48.0,M,,*5B>
 18008175 <$PDVDV,-11,383,1129,2016,7964,1*76>
 18008287 <$PDVDS,-3,118,8,37*4F>
 18008360 <$PDVDV,-6,384,1129,2016,7964,1*47>
 18008560 <$PDVDV,-2,386,1129,2016,7964,1*41>
 18008761 <$PDVDV,1,387,1129,2016,7964,1*6E>
 18008787 <$PDVDS,-3,118,8,38*40>
 18008815 <$PFLAU,0,1,2,1,0,,0,,*60>
 18009087 <$PDVDV,3,387,1129,2016,7964,1*6C>
 18009088 <$GPRMC,135328.00,A,4703.35249,N,00652.15272,E,75.579,250.99,300706,,,A*57>
 18009088 <$PGRMZ,6457,F,2*0A>
 18009088 <$PDVVT,2878,67*44>
 18009088 <$GPGGA,135328.00,4703.35249,N,00652.15272,E,1,7,1.18,2074.5,M,48.0,M,,*5E>
 18009189 <$PDVDV,4,388,1129,2016,7964,1*64>
 18009322 <$PDVDS,-2,111,8,38*48>
 18009366 <$PDVDV,5,388,1129,2017,7963,1*63>
 18009559 <$PDVDV,6,388,1129,2017,7963,1*60>
 18009760 <$PDVDV,5,388,1129,2017,7963,1*63>
 18009787 <$PDVDS,-2,102,8,38*4A>
 18009813 <$PFLAU,0,1,2,1,0,,0,,*60>
 18010067 <$PDVDV,4,387,1129,2017,7963,1*6D>
 18010068 <$GPRMC,135329.00,A,4703.34587,N,00652.12415,E,73.662,251.82,300706,,,A*56>
 18010068 <$PGRMZ,6468,F,2*06>
 18010068 <$PDVVT,2878,67*44>
 18010068 <$GPGGA,135329.00,4703.34587,N,00652.12415,E,1,7,1.18,2077.4,M,48.0,M,,*59>
 18010170 <$PDVDV,3,386,1129,2018,7962,1*65>
 18010298 <$PDVDS,-1,88,8,38*7A>
 18010359 <$PDVDV,2,384,1129,2018,7962,1*66>
 18010431 <$PDSWC,20,805008,100,122*54>
 18010560 <$PDVDV,0,382,1129,2019,7961,1*60>
 18010761 <$PDVDV,-2,380,1129,2019,7961,1*4D>
 18010787 <$PDVDS,-2,91,8,39*70>
 18010813 <$PFLAU,0,1,2,1,0,,0,,*60>
 18011058 <$PDVDV,-3,378,1129,2019,7961,1*4B>
 18011059 <$GPRMC,135330.00,A,4703.33965,N,00652.09610,E,71.931,252.29,300706,,,A*5D>
 18011059 <$PGRMZ,6481,F,2*01>
 18011059 <$PDVVT,2878,67*44>
 18011059 <$GPGGA,135330.00,4703.33965,N,00652.09610,E,1,7,1.18,2080.4,M,48.0,M,,*53>
 18011164 <$PDVDV,-5,375,1129,2020,7960,1*4B>
 18011290 <$PDVDS,-1,84,8,39*77>
 18011361 <$PDVDV,-6,373,1129,2020,7960,1*4E>
 18011561 <$PDVDV,-7,371,1129,2021,7959,1*46>
 18011761 <$PDVDV,-7,368,1129,2022,7958,1*4C>
 18011789 <$PDVDS,-3,101,8,40*47>
 18011812 <$PFLAU,0,1,2,1,0,,0,,*60>
 18011966 <$PDVDV,-8,366,1129,2022,7958,1*4D>
 18012071 <$GPRMC,135331.00,A,4703.33346,N,00652.06859,E,70.809,251.88,300706,,,A*58>
 18012071 <$PGRMZ,6481,F,2*01>
 18012071 <$PDVVT,2878,67*44>
 18012072 <$GPGGA,135331.00,4703.33346,N,00652.06859,E,1,8,1.08,2082.6,M,48.0,M,,*5B>
 18012172 <$PDVDV,-9,364,1129,2022,7958,1*4E>
 18012310 <$PDVDS,-3,98,8,40*76>
 18012365 <$PDVDV,-10,362,1129,2023,7957,1*7E>
 18012566 <$PDVDV,-11,359,1129,2023,7957,1*77>
 18012764 <$PDVDV,-12,356,1129,2024,7956,1*7D>
 18012790 <$PDVDS,-4,110,8,38*4F>
 18012812 <$PFLAU,0,1,2,1,0,,0,,*60>
 18013086 <$PDVDV,-13,354,1129,2024,7956,1*7E>
 18013086 <$GPRMC,135332.00,A,4703.32733,N,00652.04142,E,70.037,252.05,300706,,,A*5E>
 18013086 <$PGRMZ,6488,F,2*08>
 18013086 <$PDVVT,2878,67*44>
 18013087 <$GPGGA,135332.00,4703.32733,N,00652.04142,E,1,8,1.08,2084.3,M,48.0,M,,*5D>
 18013188 <$PDVDV,-13,351,1129,2024,7956,1*7B>
 18013310 <$PDVDS,-2,90,8,38*70>
 18013367 <$PDVDV,-12,349,1129,2024,7956,1*73>
 18013565 <$PDVDV,-12,347,1129,2025,7955,1*7F>
 18013766 <$PDVDV,-12,346,1129,2025,7955,1*7E>
 18013792 <$PDVDS,-6,129,8,37*48>
 18013813 <$PFLAU,0,1,2,1,0,,0,,*60>
 18014068 <$PDVDV,-11,345,1129,2025,7955,1*7E>
 18014069 <$GPRMC,135333.00,A,4703.32132,N,00652.01451,E,69.300,252.00,300706,,,A*50>
 18014069 <$PGRMZ,6495,F,2*04>
 18014396 <$PDVVT,2878,67*44>
 18014397 <$GPGGA,135333.00,4703.32132,N,00652.01451,E,1,8,1.08,2085.9,M,48.0,M,,*52>
 18014398 <$PDVDV,-9,344,1129,2025,7955,1*46>
 18014408 <$PDVDS,-2,95,8,36*7B>
 18014436 <$PDVDV,-6,344,1129,2025,7955,1*49>
 18014566 <$PDVDV,-2,344,1129,2025,7955,1*4D>
 18014765 <$PDVDV,0,345,1129,2026,7954,1*61>
 18014796 <$PDVDS,-2,87,8,36*78>
 18014812 <$PFLAU,0,1,2,1,0,,0,,*60>
 18015064 <$GPRMC,135334.00,A,4703.31526,N,00651.98791,E,68.459,251.09,300706,,,A*59>
 18015065 <$PDVDV,2,345,1129,2026,7954,1*63>
 18015065 <$PGRMZ,6498,F,2*09>
 18015065 <$GPGGA,135334.00,4703.31526,N,00651.98791,E,1,8,1.08,2088.0,M,48.0,M,,*5F>
 18015065 <$PDVVT,2878,67*44>
 18015171 <$PDVDV,4,347,1129,2026,7954,1*67>
 18015296 <$PDVDS,-2,94,8,37*7B>
 18015371 <$PDVDV,8,348,1129,2026,7954,1*64>
 18015584 <$PDVDV,11,349,1129,2027,7953,1*5B>
 18015584 <$PDSWC,20,805008,100,122*54>
 18015770 <$PDVDV,13,350,1129,2027,7953,1*51>
 18015796 <$PDVDS,-2,93,8,38*73>
 18015812 <$PFLAU,0,1,2,1,0,,0,,*60>
 18016062 <$PDVDV,14,351,1129,2027,7953,1*57>
 18016063 <$GPRMC,135335.00,A,4703.30905,N,00651.96173,E,67.573,250.60,300706,,,A*58>
 18016063 <$PGRMZ,6508,F,2*01>
 18016063 <$PDVVT,2878,67*44>
 18016063 <$GPGGA,135335.00,4703.30905,N,00651.96173,E,1,8,1.08,2089.9,M,48.0,M,,*5E>
 18016164 <$PDVDV,15,352,1130,2028,7952,1*53>
 18016330 <$PDVDS,0,64,8,38*54>
 18016371 <$PDVDV,15,352,1130,2028,7952,1*53>
 18016570 <$PDVDV,15,353,1130,2029,7951,1*50>
 18016770 <$PDVDV,14,353,1130,2029,7951,1*51>
 18016797 <$PDVDS,-2,93,8,39*72>
 18016811 <$PFLAU,0,1,2,1,0,,0,,*60>
 18017090 <$PDVDV,12,352,1130,2030,7950,1*5F>
 18017091 <$GPRMC,135336.00,A,4703.30288,N,00651.93593,E,66.897,250.67,300706,,,A*5B>
 18017091 <$PGRMZ,6505,F,2*0C>
 18017091 <$PDVVT,2879,67*45>
 18017091 <$GPGGA,135336.00,4703.30288,N,00651.93593,E,1,8,1.08,2090.3,M,48.0,M,,*5E>
 18017192 <$PDVDV,10,352,1130,2030,7950,1*5D>
 18017315 <$PDVDS,-3,92,8,39*72>
 18017367 <$PDVDV,7,351,1130,2030,7950,1*68>
 18017569 <$PDVDV,5,349,1130,2031,7949,1*6A>
 18017769 <$PDVDV,4,348,1130,2031,7949,1*6A>
 18017798 <$PDVDS,-6,120,8,38*4E>
 18017813 <$PFLAU,0,1,2,1,0,,0,,*60>
 18018070 <$PDVDV,2,346,1130,2031,7949,1*62>
 18018071 <$GPRMC,135337.00,A,4703.29682,N,00651.91035,E,66.741,251.23,300706,,,A*52>
 18018071 <$PGRMZ,6505,F,2*0C>
 18018071 <$PDVVT,2879,67*45>
 18018071 <$GPGGA,135337.00,4703.29682,N,00651.91035,E,1,8,1.08,2089.4,M,48.0,M,,*5D>
 18018172 <$PDVDV,0,345,1130,2031,7949,1*63>
 18018336 <$PDVDS,-3,97,8,37*79>
 18018367 <$PDVDV,-2,343,1130,2031,7949,1*4A>
 18018569 <$PDVDV,-3,341,1130,2031,7949,1*49>
 18018770 <$PDVDV,-6,339,1130,2030,7950,1*4A>
 18018797 <$PDVDS,-3,96,8,36*79>
 18018812 <$PFLAU,0,1,2,1,0,,0,,*60>
 18019063 <$PDVDV,-8,338,1130,2030,7950,1*45>
 18019064 <$GPRMC,135338.00,A,4703.29093,N,00651.88469,E,66.990,251.62,300706,,,A*59>
 18019064 <$PGRMZ,6502,F,2*0B>
 18019064 <$PDVVT,2879,67*45>
 18019064 <$GPGGA,135338.00,4703.29093,N,00651.88469,E,1,8,1.08,2088.7,M,48.0,M,,*53>
 18019171 <$PDVDV,-10,336,1130,2030,7950,1*72>
 18019333 <$PDVDS,-4,103,8,36*43>
 18019369 <$PDVDV,-12,335,1130,2030,7950,1*73>
 18019571 <$PDVDV,-14,334,1130,2030,7950,1*74>
 18019771 <$PDVDV,-15,333,1130,2029,7951,1*7B>
 18019806 <$PDVDS,-5,117,8,35*44>
 18019812 <$PFLAU,0,1,2,1,0,,0,,*60>
 18020062 <$PDVDV,-15,332,1130,2029,7951,1*7A>
 18020063 <$GPRMC,135339.00,A,4703.28521,N,00651.85879,E,67.181,252.79,300706,,,A*55>
 18020063 <$PGRMZ,6502,F,2*0B>
 18020063 <$PDVVT,2879,67*45>
 18020064 <$GPGGA,135339.00,4703.28521,N,00651.85879,E,1,8,1.08,2088.3,M,48.0,M,,*5B>
 18020169 <$PDVDV,-15,331,1130,2029,7951,1*79>
 18020327 <$PDVDS,-7,127,8,35*45>
 18020372 <$PDVDV,-15,330,1130,2029,7951,1*78>
 18020573 <$PDVDV,-14,330,1130,2028,7952,1*7B>
 18020720 <$PDSWC,20,805008,100,121*57>
 18020773 <$PDVDV,-13,329,1130,2028,7952,1*74>
 18020801 <$PDVDS,-3,100,8,35*44>
 18020812 <$PFLAU,0,1,2,1,0,,0,,*60>
 18021088 <$GPRMC,135340.00,A,4703.27969,N,00651.83254,E,67.686,253.31,300706,,,A*5A>
 18021089 <$PDVDV,-11,330,1130,2028,7952,1*7E>
 18021324 <$PGRMZ,6502,F,2*0B>
 18021325 <$GPGGA,135340.00,4703.27969,N,00651.83254,E,1,7,1.13,2088.7,M,48.0,M,,*58>
 18021330 <$PDVVT,2879,67*45>
 18021357 <$PDVDV,-10,330,1130,2028,7952,1*7F>
 18021395 <$PDVDS,-4,101,8,35*42>
 18021396 <$PDVDV,-8,330,1130,2028,7952,1*46>
 18021575 <$PDVDV,-8,330,1130,2028,7952,1*46>
 18021774 <$PDVDV,-7,330,1130,2028,7952,1*49>
 18021802 <$PDVDS,-3,94,8,35*78>
 18021812 <$PFLAU,0,1,2,1,0,,0,,*60>
 18022061 <$GPRMC,135341.00,A,4703.27432,N,00651.80615,E,67.652,253.72,300706,,,A*54>
 18022062 <$PDVDV,-6,330,1130,2028,7952,1*48>
 18022062 <$PGRMZ,6505,F,2*0C>
 18022062 <$GPGGA,135341.00,4703.27432,N,00651.80615,E,1,7,1.13,2089.7,M,48.0,M,,*59>
 18022062 <$PDVVT,2879,67*45>
 18022267 <$PDVDV,-6,330,1130,2028,7952,1*48>
 18022318 <$PDVDS,-3,89,8,36*77>
 18022374 <$PDVDV,-6,330,1130,2028,7952,1*48>
 18022575 <$PDVDV,-6,330,1130,2028,7952,1*48>
 18022775 <$PDVDV,-6,329,1130,2028,7952,1*40>
 18022803 <$PDVDS,-2,76,8,37*77>
 18022812 <$PFLAU,0,1,2,1,0,,0,,*60>
 18023056 <$GPRMC,135342.00,A,4703.26903,N,00651.77959,E,68.175,253.79,300706,,,A*50>
 18023056 <$PDVDV,-5,328,1130,2029,7951,1*40>
 18023057 <$PGRMZ,6505,F,2*0C>
 18023057 <$PDVVT,2879,67*45>
 18023163 <$GPGGA,135342.00,4703.26903,N,00651.77959,E,1,7,1.13,2090.0,M,48.0,M,,*54>
 18023263 <$PDVDV,-4,328,1130,2029,7951,1*41>
 18023319 <$PDVDS,0,48,8,37*55>
 18023375 <$PDVDV,-3,328,1130,2029,7951,1*46>
 18023575 <$PDVDV,-1,328,1130,2029,7951,1*44>
 18023774 <$PDVDV,0,329,1130,2030,7950,1*60>
 18023806 <$PDVDS,-3,90,8,39*70>
 18023812 <$PFLAU,0,1,2,1,0,,0,,*60>
 18024056 <$GPRMC,135343.00,A,4703.26374,N,00651.75294,E,68.507,253.84,300706,,,A*50>
 18024057 <$PDVDV,-1,329,1130,2030,7950,1*4C>
 18024057 <$PGRMZ,6498,F,2*09>
 18024157 <$GPGGA,135343.00,4703.26374,N,00651.75294,E,1,7,1.13,2087.6,M,48.0,M,,*57>
 18024158 <$PDVVT,2879,67*45>
 18024270 <$PDVDV,-2,330,1130,2030,7950,1*47>
 18024314 <$PDVDS,-3,94,8,40*7A>
 18024375 <$PDVDV,-2,332,1130,2030,7950,1*45>
 18024575 <$PDVDV,-2,332,1130,2030,7950,1*45>
 18024776 <$PDVDV,-2,333,1130,2030,7950,1*44>
 18024802 <$PDVDS,-4,111,8,39*4F>
 18024814 <$PFLAU,0,1,2,1,0,,0,,*60>
 18025090 <$GPRMC,135344.00,A,4703.25831,N,00651.72596,E,69.809,253.57,300706,,,A*50>
 18025090 <$PDVDV,-2,334,1130,2030,7950,1*43>
 18025090 <$PGRMZ,6485,F,2*05>
 18025090 <$GPGGA,135344.00,4703.25831,N,00651.72596,E,1,7,1.13,2083.0,M,48.0,M,,*59>
 18025091 <$PDVVT,2879,67*45>
 18025192 <$PDVDV,-2,335,1130,2030,7950,1*42>
 18025312 <$PDVDS,-2,95,8,38*75>
 18025375 <$PDVDV,-3,336,1130,2029,7951,1*49>
 18025574 <$PDVDV,-3,338,1130,2029,7951,1*47>
 18025775 <$PDVDV,-3,340,1130,2028,7952,1*4A>
 18025805 <$PDVDS,-3,101,8,38*48>
 18025812 <$PFLAU,0,1,2,1,0,,0,,*60>
 18025862 <$PDSWC,20,805008,100,122*54>
 18026068 <$GPRMC,135345.00,A,4703.25272,N,00651.69848,E,71.042,253.12,300706,,,A*57>
 18026068 <$PDVDV,-3,342,1129,2027,7953,1*4E>
 18026069 <$PGRMZ,6471,F,2*0E>
 18026069 <$GPGGA,135345.00,4703.25272,N,00651.69848,E,1,7,1.13,2078.2,M,48.0,M,,*57>
 18026069 <$PDVVT,2879,67*45>
 18026172 <$PDVDV,-3,344,1129,2026,7954,1*4E>
 18026325 <$PDVDS,-7,135,8,37*44>
 18026375 <$PDVDV,-4,346,1129,2026,7954,1*4B>
 18026577 <$PDVDV,-5,348,1129,2025,7955,1*46>
 18026776 <$PDVDV,-6,349,1129,2024,7956,1*46>
 18026806 <$PDVDS,-4,117,8,36*46>
 18026813 <$PFLAU,0,1,2,1,0,,0,,*60>
 18027058 <$GPRMC,135346.00,A,4703.24688,N,00651.67038,E,73.086,252.64,300706,,,A*5F>
 18027059 <$PDVDV,-6,350,1129,2023,7957,1*48>
 18027059 <$PGRMZ,6461,F,2*0F>
 18027164 <$GPGGA,135346.00,4703.24688,N,00651.67038,E,1,7,1.13,2074.4,M,48.0,M,,*5F>
 18027164 <$PDVVT,2879,67*45>
 18027265 <$PDVDV,-7,351,1129,2022,7958,1*46>
 18027319 <$PDVDS,-5,122,8,35*42>
 18027375 <$PDVDV,-8,352,1129,2021,7959,1*48>
 18027575 <$PDVDV,-9,353,1129,2020,7960,1*43>
 18027776 <$PDVDV,-11,354,1129,2019,7961,1*76>
 18027807 <$PDVDS,-3,109,8,35*4D>
 18027813 <$PFLAU,0,1,2,1,0,,0,,*60>
 18028055 <$GPRMC,135347.00,A,4703.24059,N,00651.64174,E,73.941,251.93,300706,,,A*57>
 18028055 <$PDVDV,-12,354,1129,2019,7961,1*75>
 18028457 <$PGRMZ,6454,F,2*09>
 18028459 <$GPGGA,135347.00,4703.24059,N,00651.64174,E,1,8,1.08,2073.0,M,48.0,M,,*58>
 18028459 <$PDVVT,2879,67*45>
 18028464 <$PDVDV,-13,355,1129,2018,7962,1*77>
 18028497 <$PDVDS,-2,89,8,34*74>
 18028529 <$PDVDV,-13,355,1129,2017,7963,1*79>
 18028578 <$PDVDV,-14,356,1129,2017,7963,1*7D>
 18028777 <$PDVDV,-16,355,1129,2016,7964,1*7A>
 18028808 <$PDVDS,-1,83,8,36*7F>
 18028814 <$PFLAU,0,1,2,1,0,,0,,*60>
 18029082 <$GPRMC,135348.00,A,4703.23417,N,00651.61310,E,74.050,251.68,300706,,,A*5E>
 18029083 <$PDVDV,-17,355,1129,2016,7964,1*7B>
 18029083 <$PGRMZ,6451,F,2*0C>
 18029083 <$GPGGA,135348.00,4703.23417,N,00651.61310,E,1,8,1.08,2072.2,M,48.0,M,,*58>
 18029083 <$PDVVT,2880,67*43>
 18029184 <$PDVDV,-18,355,1129,2016,7964,1*74>
 18029339 <$PDVDS,-2,91,8,37*7E>
 18029379 <$PDVDV,-19,354,1129,2016,7964,1*74>
 18029580 <$PDVDV,-18,354,1129,2015,7965,1*77>
 18029781 <$PDVDV,-17,354,1129,2015,7965,1*78>
 18029810 <$PDVDS,-5,129,8,38*44>
 18029817 <$PFLAU,0,1,2,1,0,,0,,*60>
 18030062 <$GPRMC,135349.00,A,4703.22757,N,00651.58445,E,74.560,251.05,300706,,,A*59>
 18030063 <$PDVDV,-15,354,1129,2015,7965,1*7A>
 18030063 <$PGRMZ,6444,F,2*08>
 18030063 <$GPGGA,135349.00,4703.22757,N,00651.58445,E,1,8,1.08,2070.5,M,48.0,M,,*57>
 18030063 <$PDVVT,2880,67*43>
 18030269 <$PDVDV,-14,354,1129,2015,7965,1*7B>
 18030319 <$PDVDS,-6,131,8,37*41>
 18030380 <$PDVDV,-14,354,1129,2014,7966,1*79>
 18030409 <$PFLAE,A,0,0*33>
 18030583 <$PDVDV,-14,354,1129,2014,7966,1*79>
 18030782 <$PDVDV,-13,354,1129,2014,7966,1*7E>
 18030812 <$PDVDS,-2,100,8,37*47>
 18030818 <$PFLAU,0,1,2,1,0,,0,,*60>
 18031057 <$PDVDV,-12,355,1129,2014,7966,1*7E>
 18031057 <$GPRMC,135350.00,A,4703.22086,N,00651.55571,E,74.775,251.01,300706,,,A*53>
 18031057 <$PDSWC,20,805008,100,121*57>
 18031058 <$PGRMZ,6440,F,2*0C>
 18031058 <$PDVVT,2880,67*43>
 18031165 <$GPGGA,135350.00,4703.22086,N,00651.55571,E,1,8,1.08,2069.9,M,48.0,M,,*5B>
 18031265 <$PDVDV,-11,355,1129,2014,7966,1*7D>
 18031314 <$PDVDS,-3,103,8,37*45>
 18031381 <$PDVDV,-8,356,1129,2013,7967,1*40>
 18031583 <$PDVDV,-6,357,1129,2013,7967,1*4F>
 18031783 <$PDVDV,-4,358,1129,2013,7967,1*42>
 18031812 <$PFLAU,0,1,2,1,0,,0,,*60>
 18031819 <$PDVDS,-2,101,8,38*49>
 18032055 <$GPRMC,135351.00,A,4703.21422,N,00651.52708,E,74.015,251.17,300706,,,A*56>
 18032055 <$PDVDV,-1,360,1129,2013,7967,1*4C>
 18032056 <$PGRMZ,6440,F,2*0C>
 18032056 <$PDVVT,2880,67*43>
 18032161 <$GPGGA,135351.00,4703.21422,N,00651.52708,E,1,8,1.08,2070.3,M,48.0,M,,*5A>
 18032262 <$PDVDV,0,361,1129,2013,7967,1*61>
 18032315 <$PDVDS,-3,106,8,38*4F>
 18032383 <$PDVDV,2,363,1129,2013,7967,1*61>
 18032584 <$PDVDV,3,364,1129,2013,7967,1*67>
 18032784 <$PDVDV,4,364,1129,2013,7967,1*60>
 18032814 <$PFLAU,0,1,2,1,0,,0,,*60>
 18032820 <$PDVDS,-4,114,8,38*4B>
 18033081 <$GPRMC,135352.00,A,4703.20773,N,00651.49882,E,72.982,251.48,300706,,,A*5F>
 18033082 <$PDVDV,5,365,1129,2013,7967,1*60>
 18033082 <$PGRMZ,6440,F,2*0C>
 18033082 <$GPGGA,135352.00,4703.20773,N,00651.49882,E,1,8,1.08,2071.1,M,48.0,M,,*5B>
 18033082 <$PDVVT,2880,67*43>
 18033183 <$PDVDV,4,365,1129,2013,7967,1*61>
 18033339 <$PDVDS,-3,102,8,38*4B>
 18033386 <$PDVDV,4,365,1129,2013,7967,1*61>
 18033585 <$PDVDV,4,365,1129,2014,7966,1*67>
 18033786 <$PDVDV,3,364,1129,2014,7966,1*61>
 18033813 <$PFLAU,0,1,2,1,0,,0,,*60>
 18033820 <$PDVDS,-2,93,8,39*72>
 18034060 <$GPRMC,135353.00,A,4703.20141,N,00651.47083,E,72.145,251.48,300706,,,A*5D>
 18034061 <$PDVDV,2,364,1129,2014,7966,1*60>
 18034061 <$PGRMZ,6454,F,2*09>
 18034167 <$GPGGA,135353.00,4703.20141,N,00651.47083,E,1,8,1.08,2072.3,M,48.0,M,,*5B>
 18034167 <$PDVVT,2880,67*43>
 18034267 <$PDVDV,2,363,1129,2014,7966,1*67>
 18034326 <$PDVDS,-2,95,8,38*75>
 18034386 <$PDVDV,2,362,1129,2014,7966,1*66>
 18034587 <$PDVDV,1,361,1129,2014,7966,1*66>
 18034787 <$PDVDV,0,360,1129,2015,7965,1*64>
 18034813 <$PFLAU,0,1,2,1,0,,0,,*60>
 18034819 <$PDVDS,-2,99,8,39*78>
 18035055 <$GPRMC,135354.00,A,4703.19521,N,00651.44315,E,71.534,251.76,300706,,,A*51>
 18035055 <$PDVDV,0,359,1129,2015,7965,1*6E>
 18035461 <$PGRMZ,6454,F,2*09>
 18035462 <$GPGGA,135354.00,4703.19521,N,00651.44315,E,1,8,1.08,2073.1,M,48.0,M,,*58>
 18035462 <$PDVVT,2880,67*43>
 18035467 <$PDVDV,0,358,1129,2015,7965,1*6F>
 18035499 <$PDVDS,-2,89,8,38*78>
 18035533 <$PDVDV,-1,357,1129,2015,7965,1*4C>
 18035589 <$PDVDV,-2,356,1129,2015,7965,1*4E>
 18035788 <$PDVDV,-2,355,1129,2015,7965,1*4D>
 18035812 <$PFLAU,0,1,2,1,0,,0,,*60>
 18035820 <$PDVDS,-2,90,8,38*70>
 18036055 <$GPRMC,135355.00,A,4703.18910,N,00651.41563,E,71.022,252.05,300706,,,A*58>
 18036055 <$PDVDV,-2,354,1129,2015,7965,1*4C>
 18036056 <$PGRMZ,6454,F,2*09>
 18036161 <$GPGGA,135355.00,4703.18910,N,00651.41563,E,1,8,1.08,2073.3,M,48.0,M,,*56>
 18036161 <$PDVVT,2880,67*43>
 18036161 <$PDSWC,20,805008,100,121*57>
 18036263 <$PDVDV,-3,352,1129,2016,7964,1*49>
 18036317 <$PDVDS,-2,94,8,38*74>
 18036390 <$PDVDV,-3,352,1129,2016,7964,1*49>
 18036593 <$PDVDV,-4,351,1129,2016,7964,1*4D>
 18036792 <$PDVDV,-5,350,1129,2016,7964,1*4D>
 18036811 <$PFLAU,0,1,2,1,0,,0,,*60>
 18036820 <$PDVDS,-2,95,8,39*74>
 18037085 <$GPRMC,135356.00,A,4703.18320,N,00651.38819,E,70.810,252.90,300706,,,A*58>
 18037085 <$PGRMZ,6447,F,2*0B>
 18037085 <$PDVDV,-5,350,1129,2016,7964,1*4D>
 18037085 <$GPGGA,135356.00,4703.18320,N,00651.38819,E,1,8,1.08,2072.6,M,48.0,M,,*56>
 18037086 <$PDVVT,2880,67*43>
 18037187 <$PDVDV,-5,349,1129,2016,7964,1*45>
 18037340 <$PDVDS,-2,94,8,39*75>
 18037391 <$PDVDV,-5,349,1129,2016,7964,1*45>
 18037593 <$PDVDV,-5,349,1129,2016,7964,1*45>
 18037793 <$PDVDV,-5,350,1129,2016,7964,1*4D>
 18037811 <$PFLAU,0,1,2,1,0,,0,,*60>
 18037820 <$PDVDS,-3,98,8,39*78>
 18038060 <$GPRMC,135357.00,A,4703.17751,N,00651.36051,E,71.304,253.33,300706,,,A*59>
 18038060 <$PDVDV,-6,351,1129,2016,7964,1*4F>
 18038060 <$PGRMZ,6444,F,2*08>
 18038168 <$GPGGA,135357.00,4703.17751,N,00651.36051,E,1,8,1.08,2071.1,M,48.0,M,,*54>
 18038168 <$PDVVT,2880,67*43>
 18038268 <$PDVDV,-6,351,1129,2015,7965,1*4D>
 18038326 <$PDVDS,-5,127,8,39*4B>
 18038393 <$PDVDV,-7,351,1129,2015,7965,1*4C>
 18038594 <$PDVDV,-8,351,1129,2015,7965,1*43>
 18038795 <$PDVDV,-9,351,1129,2015,7965,1*42>
 18038811 <$PFLAU,0,1,2,1,0,,0,,*60>
 18038822 <$PDVDS,-4,115,8,38*4A>
