 1675332 $PFLAU,2,1,1,1,0,,0,,,*4D
 1675332 $PGRMZ,1332,F,2*09
 1675642 $PFLAA,0,5,2,8,2,DD8C98,0,,0,0.1,0*2E
 1676160 $GPRMC,140704.00,A,4658.70912,N,00707.84550,E,0.106,,020620,,,A*79
 1676190 $GPGGA,140704.00,4658.70912,N,00707.84550,E,1,10,0.94,429.4,M,47.2,M,,*52
 1676190 $GPGSA,A,3,27,21,20,18,16,07,10,11,26,15,,,1.58,0.94,1.27*0B
 1676279 $PFLAU,2,1,1,1,0,,0,,,*4D
 1676309 $PGRMZ,1328,F,2*02
 1677112 $PFLAA,0,5,2,8,2,DD8C98,0,,0,0.1,0*2E
 1677174 $GPRMC,140705.00,A,4658.70916,N,00707.84550,E,0.019,,020620,,,A*73
 1677174 $GPGGA,140705.00,4658.70916,N,00707.84550,E,1,10,0.94,429.5,M,47.2,M,,*56
 1677203 $GPGSA,A,3,27,21,20,18,16,07,10,11,26,15,,,1.58,0.94,1.27*0B
 1677264 $PFLAU,1,1,1,1,0,,0,,,*4E
 1677328 $PGRMZ,1332,F,2*09
 1677748 $PFLAA,0,5,2,8,2,DD8C98,0,,0,0.1,0*2E
 1678190 $GPRMC,140706.00,A,4658.70916,N,00707.84553,E,0.246,,020620,,,A*7B
 1678190 $GPGGA,140706.00,4658.70916,N,00707.84553,E,1,10,0.94,429.5,M,47.2,M,,*56
 1678191 $GPGSA,A,3,27,21,20,18,16,07,10,11,26,15,,,1.58,0.94,1.27*0B
 1678279 $PFLAU,2,1,1,1,0,,0,,,*4D
 1678310 $PGRMZ,1328,F,2*02
 1678690 $PFLAA,0,5,2,8,2,DD8C98,0,,0,0.1,0*2E
 1679179 $GPRMC,140707.00,A,4658.70913,N,00707.84555,E,0.078,,020620,,,A*76
 1679181 $GPGGA,140707.00,4658.70913,N,00707.84555,E,1,10,0.94,429.4,M,47.2,M,,*55
 1679211 $GPGSA,A,3,27,21,20,18,16,07,10,11,26,15,,,1.58,0.94,1.27*0B
 1679271 $PFLAU,2,1,1,1,0,,0,,,*4D
 1679303 $PGRMZ,1332,F,2*09
 1679489 $PFLAA,0,5,2,8,2,DD8C98,0,,0,0.1,0*2E
 1680169 $GPRMC,140708.00,A,4658.70916,N,00707.84555,E,0.122,,020620,,,A*72
 1680199 $GPGGA,140708.00,4658.70916,N,00707.84555,E,1,10,0.94,429.4,M,47.2,M,,*5F
 1680199 $GPGSA,A,3,27,21,20,18,16,07,10,11,26,15,,,1.58,0.94,1.27*0B
 1680290 $PFLAU,2,1,1,1,0,,0,,,*4D
 1680324 $PGRMZ,1332,F,2*09
 1680742 $PFLAA,0,5,2,8,2,DD8C98,0,,0,0.1,0*2E
 1681166 $GPRMC,140709.00,A,4658.70919,N,00707.84554,E,0.014,,020620,,,A*79
 1681196 $GPGGA,140709.00,4658.70919,N,00707.84554,E,1,10,0.94,429.4,M,47.2,M,,*50
 1681196 $GPGSA,A,3,27,21,20,18,16,07,10,11,26,15,,,1.58,0.94,1.27*0B
 1681283 $PFLAU,2,1,1,1,0,,0,,,*4D
 1681314 $PGRMZ,1328,F,2*02
 1681816 $PFLAA,0,5,2,8,2,DD8C98,0,,0,0.1,0*2E
 1682179 $GPRMC,140710.00,A,4658.70918,N,00707.84552,E,0.166,,020620,,,A*72
 1682180 $GPGGA,140710.00,4658.70918,N,00707.84552,E,1,10,0.94,429.3,M,47.2,M,,*58
 1682212 $GPGSA,A,3,27,21,20,18,16,07,10,11,26,15,,,1.58,0.94,1.27*0B
 1682274 $PFLAU,2,1,1,1,0,,0,,,*4D
 1682303 $PGRMZ,1332,F,2*09
 1682335 $PFLAA,0,4923,-28287,2079,1,4B4DE7,230,,42,,8*16
 1682697 $PFLAA,0,5,2,8,2,DD8C98,0,,0,0.1,0*2E
 1683152 $GPRMC,140711.00,A,4658.70914,N,00707.84552,E,0.197,,020620,,,A*71
 1683181 $GPGGA,140711.00,4658.70914,N,00707.84552,E,1,10,0.94,429.2,M,47.2,M,,*54
 1683212 $GPGSA,A,3,27,21,20,18,16,07,10,11,26,15,,,1.58,0.94,1.27*0B
 1683273 $PFLAU,3,1,1,1,0,,0,,,*4C
 1683304 $PGRMZ,1328,F,2*02
 1683335 $PFLAA,0,4822,-28408,2065,1,4B4DE7,230,,42,,8*1A
 1683790 $PFLAA,0,5,2,8,2,DD8C98,0,,0,0.1,0*2E
 1684163 $GPRMC,140712.00,A,4658.70909,N,00707.84558,E,0.067,,020620,,,A*7A
 1684192 $GPGGA,140712.00,4658.70909,N,00707.84558,E,1,10,0.94,429.0,M,47.2,M,,*53
 1684192 $GPGSA,A,3,27,21,20,18,16,07,10,11,26,15,,,1.58,0.94,1.27*0B
 1684284 $PFLAU,3,1,1,1,0,,0,,,*4C
 1684317 $PGRMZ,1328,F,2*02
 1684317 $PFLAA,0,4823,-28408,2065,1,4B4DE7,230,,42,,8*1B
 1684768 $PFLAA,0,5,2,8,2,DD8C98,0,,0,0.1,0*2E
 1685164 $GPRMC,140713.00,A,4658.70906,N,00707.84562,E,0.200,,020620,,,A*7E
 1685194 $GPGGA,140713.00,4658.70906,N,00707.84562,E,1,10,0.94,428.8,M,47.2,M,,*5D
 1685194 $GPGSA,A,3,27,21,20,18,16,07,10,11,26,15,,,1.58,0.94,1.27*0B
 1685287 $PFLAU,3,1,1,1,0,,0,,,*4C
 1685319 $PGRMZ,1332,F,2*09
 1685319 $PFLAA,0,4771,-28473,2079,1,4B4DE7,229,,39,,8*16
 1685491 $PFLAA,0,6,2,8,2,DD8C98,0,,0,0.1,0*2D
 1686183 $GPRMC,140714.00,A,4658.70903,N,00707.84564,E,0.050,,020620,,,A*7D
 1686184 $GPGGA,140714.00,4658.70903,N,00707.84564,E,1,10,0.94,428.8,M,47.2,M,,*59
 1686184 $GPGSA,A,3,27,21,20,18,16,07,10,11,26,15,,,1.58,0.94,1.27*0B
 1686286 $PFLAU,3,1,1,1,0,,0,,,*4C
 1686318 $PGRMZ,1332,F,2*09
 1686318 $PFLAA,0,4771,-28473,2079,1,4B4DE7,228,,38,,8*16
 1686635 $PFLAA,0,5,2,8,2,DD8C98,0,,0,0.1,0*2E
 1687158 $GPRMC,140715.00,A,4658.70900,N,00707.84566,E,0.076,,020620,,,A*79
 1687193 $GPGGA,140715.00,4658.70900,N,00707.84566,E,1,10,0.94,428.7,M,47.2,M,,*56
 1687193 $GPGSA,A,3,27,21,20,18,16,07,10,11,26,15,,,1.58,0.94,1.27*0B
 1687284 $PFLAU,3,1,1,1,0,,0,,,*4C
 1687316 $PGRMZ,1332,F,2*09
 1687316 $PFLAA,0,4719,-28526,2095,1,4B4DE7,228,,38,,8*1B
 1687718 $PFLAA,0,5,2,9,2,DD8C98,0,,0,0.1,0*2F
 1688153 $GPRMC,140716.00,A,4658.70900,N,00707.84567,E,0.184,,020620,,,A*77
 1688183 $GPGGA,140716.00,4658.70900,N,00707.84567,E,1,10,0.94,428.7,M,47.2,M,,*54
 1688183 $GPGSA,A,3,27,21,20,18,16,07,10,11,26,15,,,1.58,0.94,1.27*0B
 1688276 $PFLAU,3,1,1,1,0,,0,,,*4C
 1688311 $PGRMZ,1332,F,2*09
 1688311 $PFLAA,0,4699,-28553,2095,1,4B4DE7,226,,33,,8*15
 1688684 $PFLAA,0,5,2,9,2,DD8C98,0,,0,0.1,0*2F
 1689150 $GPRMC,140717.00,A,4658.70902,N,00707.84568,E,0.070,,020620,,,A*71
 1689181 $GPGGA,140717.00,4658.70902,N,00707.84568,E,1,10,0.94,428.8,M,47.2,M,,*57
 1689210 $GPGSA,A,3,27,21,20,18,16,07,10,11,26,15,,,1.58,0.94,1.27*0B
 1689271 $PFLAU,3,1,1,1,0,,0,,,*4C
 1689300 $PGRMZ,1328,F,2*02
 1689332 $PFLAA,0,4673,-28574,2096,1,4B4DE7,222,,33,,8*13
 1689749 $PFLAA,0,5,2,8,2,DD8C98,0,,0,0.1,0*2E
 1690178 $GPRMC,140718.00,A,4658.70903,N,00707.84570,E,0.086,,020620,,,A*7F
 1690179 $GPGGA,140718.00,4658.70903,N,00707.84570,E,1,10,0.94,428.9,M,47.2,M,,*51
 1690210 $GPGSA,A,3,27,21,20,18,16,07,10,11,26,15,,,1.58,0.94,1.27*0B
 1690269 $PFLAU,3,1,1,1,0,,0,,,*4C
 1690297 $PGRMZ,1332,F,2*09
 1690332 $PFLAA,0,4649,-28593,2102,1,4B4DE7,219,,34,,8*10
 1690666 $PFLAA,0,5,2,8,2,DD8C98,0,,0,0.1,0*2E
 1691160 $GPRMC,140719.00,A,4658.70901,N,00707.84572,E,0.053,,020620,,,A*76
 1691195 $GPGGA,140719.00,4658.70901,N,00707.84572,E,1,10,0.94,428.8,M,47.2,M,,*51
 1691195 $GPGSA,A,3,27,21,20,18,16,07,10,11,26,15,,,1.58,0.94,1.27*0B
 1691287 $PFLAU,3,1,1,1,0,,0,,,*4C
 1691319 $PGRMZ,1328,F,2*02
 1691632 $PFLAA,0,5,2,9,2,DD8C98,0,,0,0.1,0*2F
 1692157 $GPRMC,140720.00,A,4658.70902,N,00707.84572,E,0.055,,020620,,,A*79
 1692188 $GPGGA,140720.00,4658.70902,N,00707.84572,E,1,10,0.94,428.7,M,47.2,M,,*57
 1692188 $GPGSA,A,3,27,21,20,18,16,07,10,11,26,15,,,1.58,0.94,1.27*0B
 1692280 $PFLAU,2,1,1,1,0,,0,,,*4D
 1692310 $PGRMZ,1328,F,2*02
 1692467 $PFLAA,0,5,2,9,2,DD8C98,0,,0,0.1,0*2F
 1693171 $GPRMC,140721.00,A,4658.70902,N,00707.84574,E,0.072,,020620,,,A*7B
 1693171 $GPGGA,140721.00,4658.70902,N,00707.84574,E,1,10,0.94,428.7,M,47.2,M,,*50
 1693287 $GPGSA,A,3,27,21,20,18,16,07,10,11,26,15,,,1.58,0.94,1.27*0B
 1693288 $PFLAU,2,1,1,1,0,,0,,,*4D
 1693352 $PGRMZ,1332,F,2*09
 1693833 $PFLAA,0,5,2,9,2,DD8C98,0,,0,0.1,0*2F
 1694155 $GPRMC,140722.00,A,4658.70902,N,00707.84577,E,0.077,,020620,,,A*7E
 1694187 $GPGGA,140722.00,4658.70902,N,00707.84577,E,1,10,0.94,428.6,M,47.2,M,,*51
 1694187 $GPGSA,A,3,27,21,20,18,16,07,10,11,26,15,,,1.58,0.94,1.27*0B
 1694284 $PFLAU,2,1,1,1,0,,0,,,*4D
 1694317 $PGRMZ,1332,F,2*09
 1694780 $PFLAA,0,5,2,9,2,DD8C98,0,,0,0.1,0*2F
 1695152 $GPRMC,140723.00,A,4658.70903,N,00707.84580,E,0.078,,020620,,,A*79
 1695186 $GPGGA,140723.00,4658.70903,N,00707.84580,E,1,10,0.94,428.6,M,47.2,M,,*59
 1695186 $GPGSA,A,3,27,21,20,18,16,07,10,11,26,15,,,1.58,0.94,1.27*0B
 1695280 $PFLAU,2,1,1,1,0,,0,,,*4D
 1695314 $PGRMZ,1332,F,2*09
 1695541 $PFLAA,0,5,2,9,2,DD8C98,0,,0,0.1,0*2F
 1696152 $GPRMC,140724.00,A,4658.70906,N,00707.84582,E,0.058,,020620,,,A*7B
 1696186 $GPGGA,140724.00,4658.70906,N,00707.84582,E,1,10,0.94,428.5,M,47.2,M,,*5A
 1696186 $GPGSA,A,3,27,21,20,18,16,07,10,11,26,15,,,1.58,0.94,1.27*0B
 1696281 $PFLAU,2,1,1,1,0,,0,,,*4D
 1696314 $PGRMZ,1328,F,2*02
 1696561 $PFLAA,0,5,2,9,2,DD8C98,0,,0,0.1,0*2F
 1697182 $GPRMC,140725.00,A,4658.70909,N,00707.84581,E,0.168,,020620,,,A*74
 1697182 $GPGGA,140725.00,4658.70909,N,00707.84581,E,1,10,0.94,428.6,M,47.2,M,,*54
 1697214 $GPGSA,A,3,27,21,20,18,16,07,10,11,26,15,,,1.58,0.94,1.27*0B
 1697279 $PFLAU,2,1,1,1,0,,0,,,*4D
 1697312 $PGRMZ,1328,F,2*02
 1697541 $PFLAA,0,5,2,9,2,DD8C98,0,,0,0.1,0*2F
 1698158 $GPRMC,140726.00,A,4658.70910,N,00707.84581,E,0.050,,020620,,,A*75
 1698188 $GPGGA,140726.00,4658.70910,N,00707.84581,E,1,10,0.94,428.6,M,47.2,M,,*5F
 1698190 $GPGSA,A,3,27,21,20,18,16,07,10,11,26,15,,,1.58,0.94,1.27*0B
 1698284 $PFLAU,2,1,1,1,0,,0,,,*4D
 1698317 $PGRMZ,1328,F,2*02
 1698733 $PFLAA,0,5,2,9,2,DD8C98,0,,0,0.1,0*2F
 1699147 $GPRMC,140727.00,A,4658.70911,N,00707.84584,E,0.092,,020620,,,A*7E
 1699179 $GPGGA,140727.00,4658.70911,N,00707.84584,E,1,10,0.94,428.6,M,47.2,M,,*5A
 1699212 $GPGSA,A,3,27,21,20,18,16,07,10,11,26,15,,,1.58,0.94,1.27*0B
 1699275 $PFLAU,2,1,1,1,0,,0,,,*4D
 1699307 $PGRMZ,1328,F,2*02
 1699692 $PFLAA,0,5,1,9,2,DD8C98,0,,0,0.1,0*2C
 1700169 $GPRMC,140728.00,A,4658.70909,N,00707.84586,E,0.117,,020620,,,A*76
 1700200 $GPGGA,140728.00,4658.70909,N,00707.84586,E,1,10,0.94,428.5,M,47.2,M,,*5D
 1700200 $GPGSA,A,3,27,21,20,18,16,07,10,11,26,15,,,1.58,0.94,1.27*0B
 1700318 $PFLAU,2,1,1,1,0,,0,,,*4D
 1700319 $PGRMZ,1328,F,2*02
 1700678 $PFLAA,0,5,2,9,2,DD8C98,0,,0,0.1,0*2F
 1701163 $GPRMC,140729.00,A,4658.70905,N,00707.84584,E,0.191,,020620,,,A*77
 1701194 $GPGGA,140729.00,4658.70905,N,00707.84584,E,1,10,0.94,428.5,M,47.2,M,,*52
 1701194 $GPGSA,A,3,27,21,20,18,16,07,10,11,26,15,,,1.58,0.94,1.27*0B
 1701291 $PFLAU,2,1,1,1,0,,0,,,*4D
 1701292 $PGRMZ,1328,F,2*02
 1701482 $PFLAA,0,5,2,9,2,DD8C98,0,,0,0.1,0*2F
 1702159 $GPRMC,140730.00,A,4658.70903,N,00707.84581,E,0.144,,020620,,,A*74
 1702199 $GPGGA,140730.00,4658.70903,N,00707.84581,E,1,10,0.94,428.5,M,47.2,M,,*59
 1702199 $GPGSA,A,3,27,21,20,18,16,07,10,11,26,15,,,1.58,0.94,1.27*0B
 1702293 $PFLAU,2,1,1,1,0,,0,,,*4D
 1702326 $PGRMZ,1332,F,2*09
 1702640 $PFLAA,0,5,2,9,2,DD8C98,0,,0,0.1,0*2F
 1703159 $GPRMC,140731.00,A,4658.70903,N,00707.84576,E,0.189,,020620,,,A*7C
 1703193 $GPGGA,140731.00,4658.70903,N,00707.84576,E,1,10,0.94,428.5,M,47.2,M,,*50
 1703193 $GPGSA,A,3,27,21,20,18,16,07,10,11,26,15,,,1.58,0.94,1.27*0B
 1703289 $PFLAU,2,1,1,1,0,,0,,,*4D
 1703290 $PGRMZ,1332,F,2*09
 1703510 $PFLAA,0,5,2,9,2,DD8C98,0,,0,0.1,0*2F
 1704165 $GPRMC,140732.00,A,4658.70900,N,00707.84578,E,0.155,,020620,,,A*73
 1704197 $GPGGA,140732.00,4658.70900,N,00707.84578,E,1,10,0.94,428.5,M,47.2,M,,*5E
 1704198 $GPGSA,A,3,27,21,20,18,16,07,10,11,26,15,,,1.58,0.94,1.27*0B
 1704291 $PFLAU,2,1,1,1,0,,0,,,*4D
 1704292 $PGRMZ,1328,F,2*02
 1704765 $PFLAA,0,5,1,9,2,DD8C98,0,,0,0.1,0*2C
 1705160 $GPRMC,140733.00,A,4658.70899,N,00707.84580,E,0.201,,020620,,,A*76
 1705194 $GPGGA,140733.00,4658.70899,N,00707.84580,E,1,10,0.94,428.4,M,47.2,M,,*58
 1705195 $GPGSA,A,3,27,21,20,18,16,07,10,11,26,15,,,1.58,0.94,1.27*0B
 1705337 $PFLAU,1,1,1,1,0,,0,,,*4E
 1705338 $PGRMZ,1328,F,2*02
 1705802 $PFLAA,0,5,2,9,2,DD8C98,0,,0,0.1,0*2F
 1706168 $GPRMC,140734.00,A,4658.70899,N,00707.84579,E,0.033,,020620,,,A*74
 1706199 $GPGGA,140734.00,4658.70899,N,00707.84579,E,1,10,0.94,428.4,M,47.2,M,,*59
 1706200 $GPGSA,A,3,27,21,20,18,16,07,10,11,26,15,,,1.58,0.94,1.27*0B
 1706271 $PFLAU,1,1,1,1,0,,0,,,*4E
 1706301 $PGRMZ,1328,F,2*02
 1706615 $PFLAA,0,5,2,9,2,DD8C98,0,,0,0.1,0*2F
 1707215 $GPRMC,140735.00,A,4658.70901,N,00707.84580,E,0.068,,020620,,,A*7D
 1707215 $GPGGA,140735.00,4658.70901,N,00707.84580,E,1,10,0.94,428.4,M,47.2,M,,*5E
 1707215 $GPGSA,A,3,27,21,20,18,16,07,10,11,26,15,,,1.58,0.94,1.27*0B
 1707285 $PFLAU,1,1,1,1,0,,0,,,*4E
 1707317 $PGRMZ,1328,F,2*02
 1707613 $PFLAA,0,5,2,9,2,DD8C98,0,,0,0.1,0*2F
 1708152 $GPRMC,140736.00,A,4658.70903,N,00707.84583,E,0.047,,020620,,,A*72
 1708184 $GPGGA,140736.00,4658.70903,N,00707.84583,E,1,10,0.94,428.3,M,47.2,M,,*5B
 1708185 $GPGSA,A,3,27,21,20,18,16,07,10,11,26,15,,,1.58,0.94,1.27*0B
 1708276 $PFLAU,1,1,1,1,0,,0,,,*4E
 1708307 $PGRMZ,1332,F,2*09
 1708821 $PFLAA,0,5,1,9,2,DD8C98,0,,0,0.1,0*2C
 1709161 $GPRMC,140737.00,A,4658.70904,N,00707.84586,E,0.065,,020620,,,A*71
 1709191 $GPGGA,140737.00,4658.70904,N,00707.84586,E,1,10,0.94,428.3,M,47.2,M,,*58
 1709191 $GPGSA,A,3,27,21,20,18,16,07,10,11,26,15,,,1.58,0.94,1.27*0B
 1709278 $PFLAU,1,1,1,1,0,,0,,,*4E
 1709310 $PGRMZ,1328,F,2*02
 1709486 $PFLAA,0,5,2,9,2,DD8C98,0,,0,0.1,0*2F
 1710180 $GPRMC,140738.00,A,4658.70904,N,00707.84587,E,0.033,,020620,,,A*7C
 1710181 $GPGGA,140738.00,4658.70904,N,00707.84587,E,1,10,0.94,428.4,M,47.2,M,,*51
 1710200 $GPGSA,A,3,27,21,20,18,16,07,10,11,26,15,,,1.58,0.94,1.27*0B
 1710267 $PFLAU,1,1,1,1,0,,0,,,*4E
 1710296 $PGRMZ,1328,F,2*02
 1710724 $PFLAA,0,5,1,9,2,DD8C98,0,,0,0.1,0*2C
 1711221 $GPRMC,140739.00,A,4658.70905,N,00707.84589,E,0.055,,020620,,,A*72
 1711222 $GPGGA,140739.00,4658.70905,N,00707.84589,E,1,10,0.94,428.4,M,47.2,M,,*5F
 1711222 $GPGSA,A,3,27,21,20,18,16,07,10,11,26,15,,,1.58,0.94,1.27*0B
 1711267 $PFLAU,1,1,1,1,0,,0,,,*4E
 1711297 $PGRMZ,1332,F,2*09
 1711686 $PFLAA,0,5,1,9,2,DD8C98,0,,0,0.1,0*2C
 1712177 $GPRMC,140740.00,A,4658.70906,N,00707.84591,E,0.032,,020620,,,A*77
 1712177 $GPGGA,140740.00,4658.70906,N,00707.84591,E,1,10,0.94,428.5,M,47.2,M,,*5A
 1712209 $GPGSA,A,3,27,21,20,18,16,07,10,11,26,15,,,1.58,0.94,1.27*0B
 1712271 $PFLAU,1,1,1,1,0,,0,,,*4E
 1712302 $PGRMZ,1332,F,2*09
 1712653 $PFLAA,0,5,1,9,2,DD8C98,0,,0,0.1,0*2C
 1713173 $GPRMC,140741.00,A,4658.70907,N,00707.84589,E,0.132,,020620,,,A*7F
 1713175 $GPGGA,140741.00,4658.70907,N,00707.84589,E,1,10,0.94,428.5,M,47.2,M,,*53
 1713204 $GPGSA,A,3,27,21,20,18,16,07,10,11,26,15,,,1.58,0.94,1.27*0B
 1713294 $PFLAU,1,1,1,1,0,,0,,,*4E
 1713295 $PGRMZ,1328,F,2*02
 1713507 $PFLAA,0,5,2,9,2,DD8C98,0,,0,0.1,0*2F
 1714166 $GPRMC,140742.00,A,4658.70908,N,00707.84585,E,0.140,,020620,,,A*7A
 1714167 $GPGGA,140742.00,4658.70908,N,00707.84585,E,1,10,0.94,428.6,M,47.2,M,,*50
 1714197 $GPGSA,A,3,27,21,20,18,16,07,10,11,26,15,,,1.58,0.94,1.27*0B
 1714289 $PFLAU,1,1,1,1,0,,0,,,*4E
 1714321 $PGRMZ,1328,F,2*02
 1714563 $PFLAA,0,5,2,9,2,DD8C98,0,,0,0.1,0*2F
 1715172 $GPRMC,140743.00,A,4658.70910,N,00707.84584,E,0.032,,020620,,,A*77
 1715172 $GPGGA,140743.00,4658.70910,N,00707.84584,E,1,10,0.94,428.6,M,47.2,M,,*59
 1715204 $GPGSA,A,3,27,21,20,18,16,07,10,11,26,15,,,1.58,0.94,1.27*0B
 1715265 $PFLAU,1,1,1,1,0,,0,,,*4E
 1715294 $PGRMZ,1332,F,2*09
 1715786 $PFLAA,0,5,2,9,2,DD8C98,0,,0,0.1,0*2F
 1716149 $GPRMC,140744.00,A,4658.70912,N,00707.84583,E,0.112,,020620,,,A*76
 1716181 $GPGGA,140744.00,4658.70912,N,00707.84583,E,1,10,0.94,428.6,M,47.2,M,,*5B
 1716181 $GPGSA,A,3,27,21,20,18,16,07,10,11,26,15,,,1.58,0.94,1.27*0B
 1716268 $PFLAU,1,1,1,1,0,,0,,,*4E
 1716297 $PGRMZ,1328,F,2*02
 1716330 $PFLAA,0,-8348,-103547,7691,1,4D2283,318,,121,0.0,8*18
 1716724 $PFLAA,0,5,2,9,2,DD8C98,0,,0,0.1,0*2F
 1717171 $GPRMC,140745.00,A,4658.70914,N,00707.84583,E,0.064,,020620,,,A*71
 1717171 $GPGGA,140745.00,4658.70914,N,00707.84583,E,1,10,0.94,428.6,M,47.2,M,,*5C
 1717203 $GPGSA,A,3,27,21,20,18,16,07,10,11,26,15,,,1.58,0.94,1.27*0B
 1717265 $PFLAU,2,1,1,1,0,,0,,,*4D
 1717293 $PGRMZ,1332,F,2*09
 1717325 $PFLAA,0,-8348,-103547,7691,1,4D2283,318,,121,0.0,8*18
 1717746 $PFLAA,0,5,2,9,2,DD8C98,0,,0,0.1,0*2F
 1718175 $GPRMC,140746.00,A,4658.70914,N,00707.84579,E,0.158,,020620,,,A*79
 1718175 $GPGGA,140746.00,4658.70914,N,00707.84579,E,1,10,0.94,428.8,M,47.2,M,,*54
 1718208 $GPGSA,A,3,27,21,20,18,16,07,10,11,26,15,,,1.58,0.94,1.27*0B
 1718268 $PFLAU,2,1,1,1,0,,0,,,*4D
 1718297 $PGRMZ,1332,F,2*09
 1718330 $PFLAA,0,-8348,-103547,7690,1,4D2283,318,,121,0.0,8*19
 1718512 $PFLAA,0,5,2,8,2,DD8C98,0,,0,0.1,0*2E
 1719158 $GPRMC,140747.00,A,4658.70913,N,00707.84577,E,0.017,,020620,,,A*7B
 1719189 $GPGGA,140747.00,4658.70913,N,00707.84577,E,1,10,0.94,428.9,M,47.2,M,,*5D
 1719189 $GPGSA,A,3,27,21,20,18,16,07,10,11,26,15,,,1.58,0.94,1.27*0B
 1719281 $PFLAU,2,1,1,1,0,,0,,,*4D
 1719312 $PGRMZ,1332,F,2*09
 1719312 $PFLAA,0,-8348,-103547,7690,1,4D2283,318,,121,0.0,8*19
 1719676 $PFLAA,0,5,2,8,2,DD8C98,0,,0,0.1,0*2E
 1720149 $GPRMC,140748.00,A,4658.70912,N,00707.84579,E,0.086,,020620,,,A*73
 1720179 $GPGGA,140748.00,4658.70912,N,00707.84579,E,1,10,0.94,428.9,M,47.2,M,,*5D
 1720213 $GPGSA,A,3,27,21,20,18,16,07,10,11,26,15,,,1.58,0.94,1.27*0B
 1720275 $PFLAU,2,1,1,1,0,,0,,,*4D
 1720309 $PGRMZ,1332,F,2*09
 1720309 $PFLAA,0,-8348,-103547,7690,1,4D2283,318,,121,0.0,8*19
