 18447902 <$PDVDS,-4,115,8,39*4B>
 18448051 <$GPRMC,140047.00,A,4701.67110,N,00649.38721,E,75.753,192.88,300706,,,A*54>
 18448051 <$PDVDV,-12,363,1144,2291,7698,1*71>
 18448052 <$PGRMZ,7355,F,2*0E>
 18448152 <$GPGGA,140047.00,4701.67110,N,00649.38721,E,1,10,0.78,2364.9,M,48.0,M,,*65>
 18448265 <$PDVDV,-13,363,1144,2291,7698,1*70>
 18448376 <$PDVDV,-14,362,1144,2291,7698,1*76>
 18448404 <$PDVDS,-3,107,8,39*4F>
 18448576 <$PDVDV,-15,361,1144,2290,7699,1*74>
 18448642 <$PDVVT,2860,66*4C>
 18448776 <$PDVDV,-16,360,1144,2290,7699,1*76>
 18448796 <$PFLAU,0,1,2,1,0,,0,,*60>
 18448906 <$PDVDS,-3,100,8,38*49>
 18449082 <$PDVDV,-17,359,1144,2290,7699,1*7D>
 18449082 <$GPRMC,140048.00,A,4701.65056,N,00649.38041,E,75.797,192.25,300706,,,A*54>
 18449082 <$PDSWC,20,805008,100,121*57>
 18449083 <$PGRMZ,7351,F,2*0A>
 18449083 <$GPGGA,140048.00,4701.65056,N,00649.38041,E,1,10,0.78,2364.7,M,48.0,M,,*64>
 18449184 <$PDVDV,-18,358,1144,2290,7699,1*73>
 18449378 <$PDVDV,-18,358,1144,2289,7700,1*7A>
 18449407 <$PDVDS,-3,104,8,38*4D>
 18449578 <$PDVDV,-17,357,1144,2289,7700,1*7A>
 18449643 <$PDVVT,2860,66*4C>
 18449721 <$PFLAA,0,-441,234,72,2,DD9B8E,34,,42,-2.4,1*6B>
 18449778 <$PDVDV,-16,356,1144,2289,7700,1*7A>
 18449805 <$PFLAU,1,1,2,1,0,-40,0,72,533*78>
 18449906 <$PDVDS,-3,102,8,39*4A>
 18450055 <$GPRMC,140049.00,A,4701.63010,N,00649.37409,E,74.631,191.13,300706,,,A*5C>
 18450055 <$PDVDV,-15,356,1144,2289,7700,1*79>
 18450055 <$PGRMZ,7351,F,2*0A>
 18450156 <$GPGGA,140049.00,4701.63010,N,00649.37409,E,1,10,0.78,2365.1,M,48.0,M,,*61>
 18450191 <$PDVDV,-15,356,1144,2289,7700,1*79>
 18450380 <$PDVDV,-15,355,1144,2289,7700,1*7A>
 18450393 <$PFLAA,0,-370,265,69,2,DD9B8E,35,,43,-2.1,1*65>
 18450408 <$PDVDS,-3,100,8,39*48>
 18450580 <$PDVDV,-14,355,1144,2288,7701,1*7B>
 18450645 <$PDVVT,2860,66*4C>
 18450781 <$PDVDV,-14,355,1144,2288,7701,1*7B>
 18450806 <$PFLAU,1,1,2,1,0,-47,0,69,467*75>
 18450907 <$PDVDS,-2,99,8,39*78>
 18451049 <$GPRMC,140050.00,A,4701.60965,N,00649.36851,E,74.777,189.85,300706,,,A*59>
 18451049 <$PDVDV,-13,354,1144,2288,7701,1*7D>
 18451049 <$PGRMZ,7348,F,2*02>
 18451154 <$GPGGA,140050.00,4701.60965,N,00649.36851,E,1,10,0.78,2365.1,M,48.0,M,,*61>
 18451254 <$PDVDV,-12,354,1144,2288,7701,1*7C>
 18451381 <$PDVDV,-11,354,1144,2288,7701,1*7F>
 18451409 <$PDVDS,-2,99,8,38*79>
 18451582 <$PDVDV,-10,354,1144,2288,7701,1*7E>
 18451609 <$PFLAA,0,-298,294,68,2,DD9B8E,35,,43,-2.0,1*6C>
 18451826 <$PDVVT,2860,66*4C>
 18451826 <$PDVDV,-9,354,1144,2288,7701,1*46>
 18451826 <$PFLAU,1,1,2,1,0,-54,0,68,398*71>
 18451909 <$PDVDS,-1,86,8,39*75>
 18452050 <$GPRMC,140051.00,A,4701.58908,N,00649.36358,E,74.776,188.89,300706,,,A*56>
 18452050 <$PDVDV,-9,354,1144,2288,7701,1*46>
 18452051 <$PGRMZ,7348,F,2*02>
 18452151 <$GPGGA,140051.00,4701.58908,N,00649.36358,E,1,10,0.78,2364.5,M,48.0,M,,*67>
 18452184 <$PDVDV,-9,354,1144,2288,7701,1*46>
 18452383 <$PDVDV,-8,355,1144,2288,7701,1*46>
 18452413 <$PDVDS,-2,88,8,39*78>
 18452583 <$PDVDV,-8,355,1144,2288,7701,1*46>
 18452648 <$PDVVT,2860,66*4C>
 18452783 <$PDVDV,-9,354,1144,2288,7701,1*46>
 18452813 <$PFLAA,0,-225,323,69,2,DD9B8E,35,,43,-2.0,1*66>
 18452830 <$PFLAU,0,1,2,1,0,-63,0,69,406*75>
 18452911 <$PDVDS,-5,118,8,39*47>
 18453074 <$GPRMC,140052.00,A,4701.56852,N,00649.35892,E,74.723,189.15,300706,,,A*5F>
 18453075 <$PDVDV,-9,355,1144,2288,7701,1*47>
 18453075 <$PGRMZ,7341,F,2*0B>
 18453075 <$GPGGA,140052.00,4701.56852,N,00649.35892,E,1,10,0.78,2362.9,M,48.0,M,,*60>
 18453183 <$PDVDV,-9,354,1144,2287,7702,1*4A>
 18453384 <$PDVDV,-9,354,1144,2287,7702,1*4A>
 18453412 <$PDVDS,-3,107,8,38*4E>
 18453585 <$PDVDV,-9,354,1144,2287,7702,1*4A>
 18453650 <$PDVVT,2860,66*4C>
 18453786 <$PDVDV,-9,355,1144,2287,7702,1*4B>
 18453813 <$PFLAA,0,-153,352,70,2,DD9B8E,35,,43,-2.0,1*6A>
 18453831 <$PFLAU,0,1,2,1,0,-76,0,70,416*78>
 18453913 <$PDVDS,-1,83,8,38*71>
 18454057 <$GPRMC,140053.00,A,4701.54810,N,00649.35399,E,74.192,190.11,300706,,,A*5A>
 18454057 <$PDVDV,-9,355,1144,2287,7702,1*4B>
 18454057 <$PGRMZ,7341,F,2*0B>
 18454157 <$GPGGA,140053.00,4701.54810,N,00649.35399,E,1,10,0.78,2361.4,M,48.0,M,,*6B>
 18454263 <$PDSWC,20,805008,100,121*57>
 18454263 <$PDVDV,-10,355,1144,2286,7703,1*73>
 18454386 <$PDVDV,-11,355,1144,2286,7703,1*72>
 18454413 <$PDVDS,-1,86,8,38*74>
 18454586 <$PDVDV,-11,356,1144,2286,7703,1*71>
 18454651 <$PDVVT,2860,66*4C>
 18454786 <$PDVDV,-11,356,1144,2286,7703,1*71>
 18454812 <$PFLAA,0,-82,383,68,2,DD9B8E,35,,43,-2.0,1*52>
 18454828 <$PFLAU,0,1,2,1,0,-88,0,68,428*7D>
 18454914 <$PDVDS,-2,98,8,39*79>
 18455049 <$GPRMC,140054.00,A,4701.52766,N,00649.34876,E,74.742,190.57,300706,,,A*57>
 18455049 <$PDVDV,-12,356,1144,2286,7703,1*72>
 18455049 <$PGRMZ,7331,F,2*0C>
 18455156 <$GPGGA,140054.00,4701.52766,N,00649.34876,E,1,10,0.78,2359.5,M,48.0,M,,*65>
 18455257 <$PDVDV,-12,356,1144,2285,7704,1*76>
 18455389 <$PDVDV,-12,356,1144,2285,7704,1*76>
 18455415 <$PDVDS,-3,100,8,39*48>
 18455589 <$PDVDV,-13,356,1144,2285,7704,1*77>
 18455654 <$PDVVT,2860,66*4C>
 18455790 <$PDVDV,-14,356,1144,2284,7705,1*70>
 18455796 <$PFLAU,0,1,2,1,0,,0,,*60>
 18455917 <$PDVDS,-3,100,8,39*48>
 18456041 <$GPRMC,140055.00,A,4701.50718,N,00649.34298,E,75.192,191.39,300706,,,A*54>
 18456041 <$PDVDV,-15,356,1144,2284,7705,1*71>
 18456042 <$PGRMZ,7320,F,2*0C>
 18456143 <$GPGGA,140055.00,4701.50718,N,00649.34298,E,1,10,0.78,2356.7,M,48.0,M,,*68>
 18456279 <$PDVDV,-17,356,1144,2284,7705,1*73>
 18456389 <$PDVDV,-18,355,1144,2283,7706,1*7B>
 18456417 <$PDVDS,-3,102,8,38*4B>
 18456589 <$PDVDV,-19,355,1144,2283,7706,1*7A>
 18456654 <$PDVVT,2860,66*4C>
 18456789 <$PDVDV,-19,355,1144,2282,7707,1*7A>
 18456795 <$PFLAU,0,1,2,1,0,,0,,*60>
 18456917 <$PDVDS,-3,103,8,38*4A>
 18457072 <$GPRMC,140056.00,A,4701.48674,N,00649.33649,E,75.492,192.93,300706,,,A*5C>
 18457072 <$PDVDV,-19,355,1144,2282,7707,1*7A>
 18457073 <$PGRMZ,7314,F,2*0B>
 18457073 <$GPGGA,140056.00,4701.48674,N,00649.33649,E,1,10,0.78,2353.7,M,48.0,M,,*63>
 18457281 <$PDVDV,-20,354,1144,2281,7708,1*7D>
 18457392 <$PDVDV,-20,354,1144,2281,7708,1*7D>
 18457418 <$PDVDS,-2,98,8,38*78>
 18457594 <$PDVDV,-20,354,1144,2280,7709,1*7D>
 18457657 <$PDVVT,2860,66*4C>
 18457744 <$PFLAA,0,142,482,76,2,DD9B8E,32,,44,-1.5,1*4D>
 18457792 <$PDVDV,-20,354,1144,2280,7709,1*7D>
 18457807 <$PFLAU,1,1,2,1,0,-118,0,76,551*44>
 18457919 <$PDVDS,-1,90,8,38*73>
 18458053 <$GPRMC,140057.00,A,4701.46635,N,00649.32927,E,75.736,194.34,300706,,,A*56>
 18458259 <$PDVDV,-19,355,1144,2279,7710,1*78>
 18458267 <$PGRMZ,7310,F,2*0F>
 18458295 <$GPGGA,140057.00,4701.46635,N,00649.32927,E,1,10,0.78,2350.8,M,48.0,M,,*63>
 18458327 <$PDVDV,-19,355,1144,2279,7710,1*78>
 18458392 <$PDVDV,-19,355,1143,2278,7711,1*7F>
 18458420 <$PDVDS,-2,100,8,38*48>
 18458592 <$PDVDV,-19,356,1143,2278,7711,1*7C>
 18458657 <$PDVVT,2860,66*4C>
 18458793 <$PDVDV,-18,356,1143,2276,7712,1*70>
 18458811 <$PFLAA,0,215,515,78,2,DD9B8E,32,,44,-1.5,1*4D>
 18458828 <$PFLAU,0,1,2,1,0,-127,0,78,606*46>
 18458921 <$PDVDS,-3,111,8,38*49>
 18459048 <$GPRMC,140058.00,A,4701.44600,N,00649.32107,E,76.416,196.55,300706,,,A*50>
 18459048 <$PDVDV,-17,357,1143,2276,7712,1*7E>
 18459048 <$PGRMZ,7300,F,2*0E>
 18459154 <$GPGGA,140058.00,4701.44600,N,00649.32107,E,1,10,0.78,2347.4,M,48.0,M,,*68>
 18459254 <$PDVDV,-16,358,1143,2275,7713,1*72>
 18459301 <$PDSWC,20,805008,100,121*57>
 18459395 <$PDVDV,-16,359,1143,2275,7713,1*73>
 18459423 <$PDVDS,-3,112,8,38*4A>
 18459595 <$PDVDV,-16,359,1143,2274,7714,1*75>
 18459660 <$PDVVT,2860,66*4C>
 18459795 <$PDVDV,-16,360,1143,2274,7714,1*7F>
 18459811 <$PFLAA,0,288,551,81,2,DD9B8E,32,,44,-1.5,1*4F>
 18459830 <$PFLAU,0,1,2,1,0,-134,0,81,666*44>
 18459923 <$PDVDS,-3,110,8,38*48>
 18460058 <$GPRMC,140059.00,A,4701.42579,N,00649.31180,E,76.242,197.99,300706,,,A*50>
 18460059 <$PGRMZ,7293,F,2*05>
 18460059 <$PDVDV,-16,360,1143,2273,7715,1*79>
 18460059 <$GPGGA,140059.00,4701.42579,N,00649.31180,E,1,10,0.78,2344.4,M,48.0,M,,*6D>
 18460265 <$PDVDV,-16,362,1143,2272,7716,1*79>
 18460397 <$PDVDV,-17,362,1143,2272,7716,1*78>
 18460427 <$PDVDS,-3,105,8,37*43>
 18460597 <$PDVDV,-17,362,1143,2271,7717,1*7A>
 18460662 <$PDVVT,2860,66*4C>
 18460796 <$PDVDV,-17,363,1143,2271,7717,1*7B>
 18460811 <$PFLAA,0,360,587,81,2,DD9B8E,32,,44,-1.5,1*43>
 18460828 <$PFLAU,0,1,2,1,0,-139,0,81,724*4E>
 18460924 <$PDVDS,-2,99,8,37*76>
 18461079 <$GPRMC,140100.00,A,4701.40565,N,00649.30189,E,76.735,198.99,300706,,,A*50>
 18461079 <$PGRMZ,7283,F,2*04>
 18461079 <$PDVDV,-17,363,1143,2271,7717,1*7B>
 18461079 <$GPGGA,140100.00,4701.40565,N,00649.30189,E,1,10,0.78,2342.2,M,48.0,M,,*67>
 18461284 <$PDVDV,-17,363,1143,2270,7718,1*75>
 18461398 <$PDVDV,-17,364,1143,2270,7718,1*72>
 18461426 <$PDVDS,-1,86,8,37*7B>
 18461598 <$PDVDV,-16,364,1143,2269,7719,1*7A>
 18461663 <$PDVVT,2860,66*4C>
 18461804 <$PDVDV,-16,365,1143,2269,7719,1*7B>
 18461804 <$PFLAU,0,1,2,1,0,,0,,*60>
 18461925 <$PDVDS,-1,89,8,38*7B>
 18462051 <$GPRMC,140101.00,A,4701.38559,N,00649.29153,E,76.712,199.63,300706,,,A*5F>
 18462052 <$PGRMZ,7279,F,2*01>
 18462052 <$PDVDV,-16,365,1143,2269,7719,1*7B>
 18462052 <$GPGGA,140101.00,4701.38559,N,00649.29153,E,1,10,0.78,2339.9,M,48.0,M,,*6E>
 18462264 <$PDVDV,-16,366,1143,2269,7719,1*78>
 18462400 <$PDVDV,-15,367,1143,2268,7720,1*71>
 18462430 <$PDVDS,-2,102,8,39*4B>
 18462600 <$PDVDV,-14,367,1143,2268,7720,1*70>
 18462664 <$PDVVT,2860,66*4C>
 18462805 <$PDVDV,-13,368,1143,2268,7720,1*78>
 18462805 <$PFLAU,0,1,2,1,0,,0,,*60>
 18462927 <$PDVDS,-3,107,8,39*4F>
 18463044 <$GPRMC,140102.00,A,4701.36551,N,00649.28076,E,77.477,200.27,300706,,,A*5F>
 18463045 <$PGRMZ,7259,F,2*03>
 18463045 <$PDVDV,-13,368,1143,2267,7721,1*76>
 18463146 <$GPGGA,140102.00,4701.36551,N,00649.28076,E,1,10,0.78,2336.9,M,48.0,M,,*63>
 18463284 <$PDVDV,-13,369,1143,2267,7721,1*77>
 18463402 <$PDVDV,-13,369,1143,2266,7722,1*75>
 18463429 <$PDVDS,-1,93,8,39*71>
 18463602 <$PDVDV,-13,370,1143,2266,7722,1*7D>
 18463666 <$PDVVT,2860,66*4C>
 18463808 <$PDVDV,-13,370,1143,2266,7722,1*7D>
 18463809 <$PFLAU,0,1,2,1,0,,0,,*60>
 18463928 <$PDVDS,-1,89,8,39*7A>
 18464043 <$GPRMC,140103.00,A,4701.34534,N,00649.26970,E,77.766,200.54,300706,,,A*59>
 18464043 <$PGRMZ,7252,F,2*08>
 18464043 <$PDVDV,-13,372,1143,2265,7723,1*7D>
 18464149 <$GPGGA,140103.00,4701.34534,N,00649.26970,E,1,10,0.78,2333.9,M,48.0,M,,*67>
 18464249 <$PDVDV,-12,372,1143,2265,7723,1*7C>
 18464402 <$PDVDV,-12,373,1143,2264,7724,1*7B>
 18464444 <$PDVDS,-3,108,8,39*40>
 18464451 <$PDSWC,20,805008,100,121*57>
 18464667 <$PFLAE,A,0,0*33>
 18464667 <$PDVDV,-13,374,1143,2264,7724,1*7D>
 18464668 <$PDVVT,2860,66*4C>
 18464797 <$PFLAU,0,1,2,1,0,,0,,*60>
 18464807 <$PDVDV,-14,374,1143,2263,7725,1*7C>
 18464931 <$PDVDS,-3,114,8,39*4D>
 18465071 <$GPRMC,140104.00,A,4701.32501,N,00649.25822,E,79.285,200.99,300706,,,A*5C>
 18465071 <$PGRMZ,7245,F,2*0E>
 18465071 <$PDVDV,-15,375,1143,2262,7726,1*7E>
 18465072 <$GPGGA,140104.00,4701.32501,N,00649.25822,E,1,10,0.78,2330.3,M,48.0,M,,*6C>
 18465281 <$PDVDV,-17,375,1143,2262,7726,1*7C>
 18465405 <$PDVDV,-18,375,1143,2261,7727,1*71>
 18465433 <$PDVDS,-2,108,8,38*40>
 18465605 <$PDVDV,-18,375,1143,2261,7727,1*71>
 18465669 <$PDVVT,2861,66*4D>
 18465795 <$PFLAU,0,1,2,1,0,,0,,*60>
 18465811 <$PDVDV,-18,375,1142,2260,7728,1*7E>
 18465932 <$PDVDS,-2,103,8,38*4B>
 18466058 <$GPRMC,140105.00,A,4701.30465,N,00649.24622,E,79.015,202.56,300706,,,A*59>
 18466058 <$PGRMZ,7238,F,2*04>
 18466058 <$PDVDV,-18,375,1142,2259,7729,1*75>
 18466058 <$GPGGA,140105.00,4701.30465,N,00649.24622,E,1,10,0.78,2327.1,M,48.0,M,,*67>
 18466263 <$PDVDV,-18,376,1142,2259,7729,1*76>
 18466406 <$PDVDV,-17,376,1142,2258,7730,1*70>
 18466434 <$PDVDS,-2,113,8,38*4A>
 18466605 <$PDVDV,-16,378,1142,2258,7730,1*7F>
 18466671 <$PDVVT,2861,66*4D>
 18466797 <$PFLAU,0,1,2,1,0,,0,,*60>
 18466807 <$PDVDV,-16,378,1142,2257,7731,1*71>
 18466933 <$PDVDS,-4,127,8,38*4B>
 18467046 <$GPRMC,140106.00,A,4701.28443,N,00649.23344,E,79.396,203.87,300706,,,A*50>
 18467046 <$PGRMZ,7232,F,2*0E>
 18467046 <$PDVDV,-17,379,1142,2256,7732,1*73>
 18467151 <$GPGGA,140106.00,4701.28443,N,00649.23344,E,1,10,0.78,2324.7,M,48.0,M,,*6E>
 18467251 <$PDVDV,-17,379,1142,2256,7732,1*73>
 18467407 <$PDVDV,-16,380,1142,2255,7733,1*76>
 18467435 <$PDVDS,-4,121,8,38*4D>
 18467607 <$PDVDV,-16,380,1142,2255,7733,1*76>
 18467672 <$PDVVT,2861,66*4D>
 18467798 <$PFLAU,0,1,2,1,0,,0,,*60>
 18467807 <$PDVDV,-16,380,1142,2254,7734,1*70>
 18467940 <$PDVDS,-2,110,8,38*49>
 18468041 <$GPRMC,140107.00,A,4701.26446,N,00649.21983,E,78.784,205.55,300706,,,A*56>
 18468042 <$PGRMZ,7238,F,2*04>
 18468042 <$PDVDV,-17,380,1142,2254,7734,1*71>
 18468148 <$GPGGA,140107.00,4701.26446,N,00649.21983,E,1,10,0.78,2323.7,M,48.0,M,,*60>
 18468248 <$PDVDV,-18,380,1142,2254,7734,1*7E>
 18468410 <$PDVDV,-19,379,1142,2253,7735,1*7F>
 18468437 <$PDVDS,-1,100,8,38*4B>
 18468610 <$PDVDV,-19,379,1142,2253,7735,1*7F>
 18468674 <$PDVVT,2861,66*4D>
 18468795 <$PFLAU,0,1,2,1,0,,0,,*60>
 18468813 <$PDVDV,-19,378,1142,2253,7735,1*7E>
 18468980 <$PDVDS,-2,98,8,39*79>
 18468981 <$GPRMC,140108.00,A,4701.24488,N,00649.20546,E,78.497,207.42,300706,,,A*58>
 18469084 <$PGRMZ,7235,F,2*09>
 18469084 <$PDVDV,-19,377,1142,2252,7736,1*73>
 18469084 <$GPGGA,140108.00,4701.24488,N,00649.20546,E,1,10,0.78,2323.8,M,48.0,M,,*64>
 18469289 <$PDVDV,-19,376,1142,2252,7736,1*72>
 18469411 <$PDVDV,-19,376,1142,2252,7736,1*72>
 18469437 <$PDVDS,-2,98,8,40*77>
 18469590 <$PDSWC,20,805008,100,121*57>
 18469612 <$PDVDV,-19,375,1142,2252,7736,1*71>
 18469678 <$PDVVT,2861,66*4D>
 18469795 <$PFLAU,0,1,2,1,0,,0,,*60>
 18469813 <$PDVDV,-19,374,1142,2252,7736,1*70>
 18470050 <$PDVDS,-3,106,8,40*40>
 18470051 <$GPRMC,140109.00,A,4701.22559,N,00649.19053,E,78.219,208.49,300706,,,A*5D>
 18470051 <$PGRMZ,7225,F,2*08>
 18470051 <$PDVDV,-19,373,1142,2252,7736,1*77>
 18470052 <$GPGGA,140109.00,4701.22559,N,00649.19053,E,1,10,0.78,2323.8,M,48.0,M,,*65>
 18470257 <$PDVDV,-18,373,1142,2252,7736,1*76>
 18470412 <$PDVDV,-17,372,1142,2252,7736,1*78>
 18470439 <$PDVDS,-2,98,8,40*77>
 18470613 <$PDVDV,-16,371,1142,2252,7736,1*7A>
 18470677 <$PDVVT,2861,66*4D>
 18470795 <$PFLAU,0,1,2,1,0,,0,,*60>
 18470814 <$PDVDV,-15,370,1142,2252,7736,1*78>
 18470943 <$PDVDS,-2,97,8,40*78>
 18471045 <$GPRMC,140110.00,A,4701.20675,N,00649.17517,E,77.156,209.69,300706,,,A*55>
 18471045 <$PGRMZ,7225,F,2*08>
 18471045 <$PDVDV,-14,370,1142,2252,7736,1*79>
 18471151 <$GPGGA,140110.00,4701.20675,N,00649.17517,E,1,10,0.78,2323.5,M,48.0,M,,*64>
 18471251 <$PDVDV,-14,369,1142,2252,7736,1*71>
 18471508 <$PDVDV,-13,369,1142,2252,7736,1*76>
 18471509 <$PDVDS,-3,111,8,40*46>
 18471615 <$PDVDV,-10,369,1142,2252,7736,1*75>
 18471679 <$PDVVT,2861,66*4D>
 18471794 <$PFLAU,0,1,2,1,0,,0,,*60>
 18471815 <$PDVDV,-9,369,1142,2252,7736,1*4D>
 18472042 <$PDVDS,-1,93,8,39*71>
 18472043 <$GPRMC,140111.00,A,4701.18822,N,00649.15946,E,76.408,210.64,300706,,,A*53>
 18472043 <$PGRMZ,7228,F,2*05>
 18472043 <$PDVDV,-8,369,1142,2252,7736,1*4C>
 18472149 <$GPGGA,140111.00,4701.18822,N,00649.15946,E,1,9,0.91,2323.2,M,48.0,M,,*50>
 18472249 <$PDVDV,-8,369,1142,2252,7736,1*4C>
 18472416 <$PDVDV,-9,368,1142,2252,7736,1*4C>
 18472443 <$PDVDS,-1,89,8,39*7A>
 18472615 <$PDVDV,-9,368,1142,2252,7736,1*4C>
 18472681 <$PDVVT,2861,66*4D>
 18472794 <$PFLAU,0,1,2,1,0,,0,,*60>
 18472816 <$PDVDV,-10,368,1142,2252,7736,1*74>
 18473068 <$PDVDS,-1,92,8,40*7E>
 18473069 <$GPRMC,140112.00,A,4701.17012,N,00649.14347,E,75.584,211.61,300706,,,A*5C>
 18473069 <$PGRMZ,7228,F,2*05>
 18473069 <$PDVDV,-11,367,1142,2252,7736,1*7A>
 18473070 <$GPGGA,140112.00,4701.17012,N,00649.14347,E,1,9,0.91,2322.8,M,48.0,M,,*56>
 18473274 <$PDVDV,-12,365,1142,2252,7736,1*7B>
 18473417 <$PDVDV,-13,364,1142,2252,7736,1*7B>
 18473445 <$PDVDS,-3,104,8,39*4C>
 18473618 <$PDVDV,-15,363,1142,2252,7736,1*7A>
 18473682 <$PDVVT,2861,66*4D>
 18473795 <$PFLAU,0,1,2,1,0,,0,,*60>
 18473819 <$PDVDV,-17,361,1142,2252,7736,1*7A>
 18474050 <$PDVDS,-5,118,8,39*47>
 18474050 <$GPRMC,140113.00,A,4701.15238,N,00649.12720,E,75.175,212.79,300706,,,A*56>
 18474050 <$PGRMZ,7225,F,2*08>
 18474050 <$PDVDV,-19,359,1142,2252,7736,1*7F>
 18474051 <$GPGGA,140113.00,4701.15238,N,00649.12720,E,1,9,0.91,2321.6,M,48.0,M,,*51>
 18474270 <$PDVDV,-19,358,1142,2250,7737,1*7D>
 18474421 <$PDVDV,-19,357,1142,2250,7737,1*72>
 18474447 <$PDVDS,-4,121,8,39*4C>
 18474620 <$PDVDV,-17,356,1142,2250,7737,1*7D>
 18474684 <$PDVVT,2861,66*4D>
 18474734 <$PDSWC,20,805008,100,121*57>
 18474794 <$PFLAU,0,1,2,1,0,,0,,*60>
 18474821 <$PDVDV,-15,355,1142,2250,7737,1*7C>
 18475048 <$PDVDS,-4,121,8,38*4D>
 18475049 <$GPRMC,140114.00,A,4701.13507,N,00649.11034,E,74.754,214.48,300706,,,A*5D>
 18475049 <$PGRMZ,7218,F,2*06>
 18475049 <$PDVDV,-13,355,1142,2250,7737,1*7A>
 18475050 <$GPGGA,140114.00,4701.13507,N,00649.11034,E,1,9,0.91,2321.1,M,48.0,M,,*5D>
 18475255 <$PDVDV,-12,355,1142,2249,7738,1*7C>
 18475424 <$PDVDV,-11,355,1142,2249,7738,1*7F>
 18475449 <$PDVDS,-3,107,8,38*4E>
 18475622 <$PDVDV,-11,355,1142,2249,7738,1*7F>
 18475686 <$PDVVT,2861,66*4D>
 18475794 <$PFLAU,0,1,2,1,0,,0,,*60>
 18475822 <$PDVDV,-11,355,1142,2249,7738,1*7F>
 18476057 <$GPRMC,140115.00,A,4701.11822,N,00649.09303,E,73.906,215.73,300706,,,A*5D>
 18476057 <$PDVDS,-2,95,8,37*7A>
 18476058 <$PGRMZ,7228,F,2*05>
 18476058 <$PDVDV,-10,354,1142,2249,7738,1*7F>
 18476058 <$GPGGA,140115.00,4701.11822,N,00649.09303,E,1,9,0.91,2322.0,M,48.0,M,,*58>
 18476264 <$PDVDV,-9,354,1142,2248,7739,1*47>
 18476423 <$PDVDV,-9,354,1142,2248,7739,1*47>
 18476450 <$PDVDS,-2,95,8,38*75>
 18476625 <$PDVDV,-8,353,1142,2248,7739,1*41>
 18476689 <$PDVVT,2861,66*4D>
 18476794 <$PFLAU,0,1,2,1,0,,0,,*60>
 18476823 <$PDVDV,-8,352,1142,2249,7738,1*40>
 18477073 <$GPRMC,140116.00,A,4701.10180,N,00649.07554,E,72.313,216.26,300706,,,A*58>
 18477074 <$PDVDS,-3,98,8,38*79>
 18477074 <$PGRMZ,7228,F,2*05>
 18477074 <$PDVDV,-7,352,1142,2249,7738,1*4F>
 18477075 <$GPGGA,140116.00,4701.10180,N,00649.07554,E,1,9,0.91,2322.9,M,48.0,M,,*58>
 18477280 <$PDVDV,-7,352,1142,2249,7738,1*4F>
 18477425 <$PDVDV,-7,351,1142,2249,7738,1*4C>
 18477452 <$PDVDS,-2,94,8,39*75>
 18477625 <$PDVDV,-7,351,1142,2249,7738,1*4C>
 18477690 <$PDVVT,2861,66*4D>
 18477795 <$PFLAU,0,1,2,1,0,,0,,*60>
 18477827 <$PDVDV,-7,350,1142,2249,7738,1*4D>
 18478054 <$PDVDS,-3,96,8,39*76>
 18478054 <$GPRMC,140117.00,A,4701.08574,N,00649.05819,E,71.732,216.71,300706,,,A*5F>
 18478054 <$PGRMZ,7228,F,2*05>
 18478055 <$PDVDV,-8,349,1142,2249,7738,1*4A>
 18478160 <$GPGGA,140117.00,4701.08574,N,00649.05819,E,1,9,0.91,2323.1,M,48.0,M,,*50>
 18478261 <$PDVDV,-9,348,1142,2250,7737,1*4D>
 18478426 <$PDVDV,-10,348,1142,2250,7737,1*75>
 18478453 <$PDVDS,-2,93,8,39*72>
 18478626 <$PDVDV,-11,347,1142,2250,7737,1*7B>
 18478691 <$PDVVT,2861,66*4D>
 18478794 <$PFLAU,0,1,2,1,0,,0,,*60>
 18478826 <$PDVDV,-12,346,1142,2250,7737,1*79>
 18479044 <$PDVDS,-3,99,8,39*79>
 18479045 <$GPRMC,140118.00,A,4701.06981,N,00649.04092,E,71.644,216.35,300706,,,A*52>
 18479045 <$PGRMZ,7228,F,2*05>
 18479045 <$PDVDV,-13,345,1142,2250,7737,1*7B>
 18479152 <$GPGGA,140118.00,4701.06981,N,00649.04092,E,1,9,0.91,2322.6,M,48.0,M,,*5B>
 18479253 <$PDVDV,-14,344,1142,2250,7737,1*7D>
 18479427 <$PDVDV,-15,342,1142,2250,7737,1*7A>
 18479454 <$PDVDS,-3,92,8,39*72>
 18479627 <$PDVDV,-15,341,1142,2250,7737,1*79>
 18479692 <$PDVVT,2861,66*4D>
 18479797 <$PFLAU,0,1,2,1,0,,0,,*60>
 18479827 <$PDVDV,-16,341,1142,2250,7737,1*7A>
 18479879 <$PDSWC,20,805008,100,121*57>
 18480050 <$GPRMC,140119.00,A,4701.05379,N,00649.02394,E,71.727,215.60,300706,,,A*59>
 18480050 <$PDVDS,-3,95,8,38*74>
 18480051 <$PGRMZ,7228,F,2*05>
 18480051 <$PDVDV,-16,339,1142,2250,7737,1*75>
 18480155 <$GPGGA,140119.00,4701.05379,N,00649.02394,E,1,9,0.91,2321.4,M,48.0,M,,*56>
 18480255 <$PDVDV,-17,339,1142,2250,7737,1*74>
 18480432 <$PDVDV,-16,338,1142,2250,7737,1*74>
 18480457 <$PDVDS,-2,92,8,38*72>
 18480631 <$PDVDV,-16,338,1142,2249,7738,1*73>
 18480697 <$PDVVT,2861,66*4D>
 18480795 <$PFLAU,0,1,2,1,0,,0,,*60>
 18480831 <$PDVDV,-15,338,1142,2249,7738,1*70>
 18481068 <$GPRMC,140120.00,A,4701.03736,N,00649.00711,E,72.654,214.89,300706,,,A*51>
 18481068 <$PDVDS,-4,108,8,38*46>
 18481069 <$PGRMZ,7221,F,2*0C>
 18481069 <$GPGGA,140120.00,4701.03736,N,00649.00711,E,1,7,1.37,2319.6,M,48.0,M,,*54>
 18481069 <$PDVDV,-14,338,1142,2249,7738,1*71>
 18481274 <$PDVDV,-13,338,1142,2249,7738,1*76>
 18481432 <$PDVDV,-13,338,1142,2249,7738,1*76>
 18481461 <$PDVDS,-5,113,8,38*4D>
 18481632 <$PDVDV,-12,339,1142,2248,7739,1*76>
 18481696 <$PDVVT,2861,66*4D>
 18481795 <$PFLAU,0,1,2,1,0,,0,,*60>
 18481831 <$PDVDV,-12,339,1142,2248,7739,1*76>
 18482055 <$GPRMC,140121.00,A,4701.02062,N,00648.99019,E,73.647,214.60,300706,,,A*5D>
 18482055 <$PDVDS,-3,100,8,38*49>
 18482055 <$PGRMZ,7211,F,2*0F>
 18482056 <$GPGGA,140121.00,4701.02062,N,00648.99019,E,1,7,1.37,2317.9,M,48.0,M,,*5D>
 18482056 <$PDVDV,-11,339,1142,2248,7739,1*75>
 18482262 <$PDVDV,-10,340,1142,2247,7740,1*7B>
 18482433 <$PDVDV,-10,340,1142,2247,7740,1*7B>
 18482459 <$PDVDS,-4,105,8,38*4B>
 18482632 <$PDVDV,-9,341,1142,2246,7741,1*42>
 18482697 <$PDVVT,2861,66*4D>
 18482796 <$PFLAU,0,1,2,1,0,,0,,*60>
 18482832 <$PDVDV,-9,341,1142,2246,7741,1*42>
 18483045 <$GPRMC,140122.00,A,4701.00340,N,00648.97318,E,75.163,214.11,300706,,,A*52>
 18483045 <$PDVDS,-3,106,8,38*4F>
 18483045 <$PGRMZ,7211,F,2*0F>
 18483045 <$GPGGA,140122.00,4701.00340,N,00648.97318,E,1,8,1.20,2316.2,M,48.0,M,,*50>
 18483146 <$PDVDV,-9,341,1142,2246,7741,1*42>
 18483247 <$PDVDV,-8,341,1142,2245,7742,1*43>
 18483431 <$PDVDV,-8,342,1142,2245,7742,1*40>
 18483459 <$PDVDS,-4,107,8,39*48>
 18483631 <$PDVDV,-9,342,1142,2245,7742,1*41>
 18483696 <$PDVVT,2861,66*4D>
 18483798 <$PFLAU,0,1,2,1,0,,0,,*60>
 18483831 <$PDVDV,-8,343,1142,2244,7743,1*41>
 18484046 <$GPRMC,140123.00,A,4700.98612,N,00648.95607,E,74.519,214.66,300706,,,A*50>
 18484046 <$PDVDS,-4,110,8,38*4F>
 18484046 <$PGRMZ,7208,F,2*07>
 18484046 <$GPGGA,140123.00,4700.98612,N,00648.95607,E,1,8,1.20,2315.3,M,48.0,M,,*58>
 18484171 <$PDVDV,-7,344,1142,2244,7743,1*49>
 18484276 <$PDVDV,-6,344,1142,2244,7743,1*48>
 18484432 <$PDVDV,-5,345,1142,2243,7744,1*4A>
 18484459 <$PDVDS,-4,109,8,38*47>
 18484634 <$PDVDV,-5,345,1142,2243,7744,1*4A>
 18484696 <$PDVVT,2861,66*4D>
 18484795 <$PFLAU,0,1,2,1,0,,0,,*60>
 18484832 <$PDVDV,-4,345,1142,2243,7744,1*4B>
 18485068 <$GPRMC,140124.00,A,4700.96901,N,00648.93879,E,75.146,214.74,300706,,,A*59>
 18485068 <$PDVDS,-4,108,8,38*46>
 18485068 <$PGRMZ,7204,F,2*0B>
 18485068 <$PDSWC,20,805008,100,121*57>
 18485069 <$GPGGA,140124.00,4700.96901,N,00648.93879,E,1,8,1.20,2315.1,M,48.0,M,,*5F>
 18485069 <$PDVDV,-4,346,1142,2243,7744,1*48>
 18485497 <$PDVDV,-4,346,1142,2243,7744,1*48>
 18485503 <$PDVDV,-3,347,1142,2243,7744,1*4E>
 18485535 <$PDVDS,-3,96,8,38*77>
 18485633 <$PDVDV,-2,347,1141,2242,7745,1*4C>
 18485698 <$PDVVT,2861,66*4D>
 18485793 <$PFLAU,0,1,2,1,0,,0,,*60>
 18485832 <$PDVDV,-1,347,1141,2242,7745,1*4F>
 18486067 <$PDVDS,-3,101,8,38*48>
 18486070 <$GPRMC,140125.00,A,4700.95209,N,00648.92115,E,74.839,215.17,300706,,,A*5E>
 18486085 <$PGRMZ,7208,F,2*07>
 18486185 <$PDVDV,-1,348,1141,2242,7745,1*40>
 18486185 <$GPGGA,140125.00,4700.95209,N,00648.92115,E,1,10,0.78,2315.0,M,48.0,M,,*68>
 18486290 <$PDVDV,0,348,1141,2242,7745,1*6C>
 18486447 <$PDVDV,0,348,1141,2242,7745,1*6C>
 18486486 <$PDVDS,-4,108,8,38*46>
 18486632 <$PDVDV,-1,347,1141,2242,7745,1*4F>
 18486697 <$PDVVT,2861,66*4D>
 18486794 <$PFLAU,0,1,2,1,0,,0,,*60>
 18486832 <$PDVDV,-2,347,1142,2243,7744,1*4F>
 18487074 <$GPRMC,140126.00,A,4700.93537,N,00648.90336,E,74.496,215.64,300706,,,A*5D>
 18487085 <$PDVDS,-4,108,8,38*46>
 18487095 <$PGRMZ,7211,F,2*0F>
 18487195 <$PDVDV,-3,345,1142,2243,7744,1*4C>
 18487195 <$GPGGA,140126.00,4700.93537,N,00648.90336,E,1,9,0.91,2315.1,M,48.0,M,,*58>
 18487301 <$PDVDV,-4,345,1142,2243,7744,1*4B>
 18487447 <$PDVDV,-4,344,1142,2243,7744,1*4A>
 18487459 <$PDVDS,-2,95,8,38*75>
 18487635 <$PDVDV,-3,342,1142,2243,7744,1*4B>
 18487697 <$PDVVT,2861,66*4D>
 18487798 <$PFLAU,0,1,2,1,0,,0,,*60>
 18487833 <$PDVDV,-3,342,1142,2243,7744,1*4B>
 18488059 <$GPRMC,140127.00,A,4700.91866,N,00648.88575,E,74.097,215.46,300706,,,A*5A>
 18488085 <$PDVDS,-3,101,8,39*49>
 18488096 <$PGRMZ,7215,F,2*0B>
 18488196 <$PDVDV,-3,341,1142,2243,7744,1*48>
 18488196 <$GPGGA,140127.00,4700.91866,N,00648.88575,E,1,9,0.91,2315.8,M,48.0,M,,*53>
 18488301 <$PDVDV,-3,341,1142,2243,7744,1*48>
 18488451 <$PDVDV,-3,341,1142,2243,7744,1*48>
 18488460 <$PDVDS,-3,99,8,39*79>
 18488632 <$PDVDV,-3,340,1142,2244,7743,1*49>
 18488698 <$PDVVT,2862,66*4E>
 18488792 <$PFLAU,0,1,2,1,0,,0,,*60>
 18488834 <$PDVDV,-4,340,1142,2244,7743,1*4E>
 18489039 <$GPRMC,140128.00,A,4700.90201,N,00648.86820,E,74.109,215.72,300706,,,A*5D>
 18489041 <$PDVDS,-3,99,8,39*79>
 18489083 <$PGRMZ,7221,F,2*0C>
 18489183 <$PDVDV,-4,339,1142,2244,7743,1*40>
 18489183 <$GPGGA,140128.00,4700.90201,N,00648.86820,E,1,9,0.91,2316.5,M,48.0,M,,*5B>
 18489290 <$PDVDV,-4,339,1142,2244,7743,1*40>
 18489441 <$PDVDV,-4,338,1142,2244,7743,1*41>
 18489461 <$PDVDS,-4,104,8,39*4B>
 18489634 <$PDVDV,-3,338,1142,2245,7742,1*46>
 18489701 <$PDVVT,2862,66*4E>
 18489795 <$PFLAU,0,1,2,1,0,,0,,*60>
 18489834 <$PDVDV,-2,338,1142,2245,7742,1*47>
 18490040 <$GPRMC,140129.00,A,4700.88540,N,00648.85065,E,73.659,215.90,300706,,,A*54>
 18490042 <$PDVDS,-4,104,8,39*4B>
 18490058 <$PGRMZ,7225,F,2*08>
 18490158 <$GPGGA,140129.00,4700.88540,N,00648.85065,E,1,9,0.91,2317.2,M,48.0,M,,*5D>
 18490158 <$PDVDV,-1,337,1142,2245,7742,1*4B>
 18490267 <$PDSWC,20,805008,100,121*57>
 18490267 <$PDVDV,0,337,1142,2245,7742,1*67>
 18490431 <$PDVDV,0,336,1142,2245,7742,1*66>
 18490462 <$PDVDS,-4,106,8,38*48>
 18490634 <$PDVDV,0,336,1142,2245,7742,1*66>
 18490703 <$PDVVT,2862,66*4E>
 18490792 <$PFLAU,0,1,2,1,0,,0,,*60>
 18490834 <$PDVDV,0,335,1142,2245,7742,1*65>
 18491039 <$GPRMC,140130.00,A,4700.86892,N,00648.83323,E,73.019,215.73,300706,,,A*58>
 18491041 <$PDVDS,-3,97,8,37*79>
 18491051 <$PGRMZ,7225,F,2*08>
 18491152 <$PDVDV,0,335,1142,2245,7742,1*65>
 18491152 <$GPGGA,140130.00,4700.86892,N,00648.83323,E,1,9,0.91,2318.3,M,48.0,M,,*50>
 18491258 <$PDVDV,0,335,1142,2246,7741,1*65>
 18491434 <$PDVDV,1,334,1142,2246,7741,1*65>
 18491462 <$PDVDS,-2,90,8,38*70>
 18491636 <$PDVDV,2,334,1142,2246,7741,1*66>
 18491700 <$PDVVT,2862,66*4E>
 18491866 <$PFLAU,0,1,2,1,0,,0,,*60>
 18491866 <$PDVDV,3,334,1142,2246,7741,1*67>
 18491972 <$GPRMC,140131.00,A,4700.85248,N,00648.81602,E,73.174,215.67,300706,,,A*5C>
 18492339 <$PDVDS,-2,87,8,38*76>
 18492342 <$PGRMZ,7228,F,2*05>
 18492463 <$GPGGA,140131.00,4700.85248,N,00648.81602,E,1,9,0.91,2319.0,M,48.0,M,,*59>
 18492464 <$PDVDV,3,334,1142,2246,7741,1*67>
 18492811 <$PDVDV,4,334,1142,2246,7741,1*60>
 18492811 <$PDVDV,3,335,1142,2247,7740,1*66>
 18492812 <$PDVDS,-3,95,8,38*74>
 18492812 <$PDVDV,3,335,1142,2247,7740,1*66>
 18492812 <$PDVVT,2862,66*4E>
 18492813 <$PFLAU,0,1,2,1,0,,0,,*60>
 18492915 <$PDVDV,3,335,1142,2247,7740,1*66>
 18493030 <$GPRMC,140132.00,A,4700.83597,N,00648.79896,E,73.055,215.23,300706,,,A*5A>
 18493030 <$PDVDS,-4,107,8,38*49>
 18493030 <$PGRMZ,7225,F,2*08>
 18493163 <$PDVDV,4,335,1142,2247,7740,1*61>
 18493167 <$GPGGA,140132.00,4700.83597,N,00648.79896,E,1,9,0.91,2318.6,M,48.0,M,,*5A>
 18493303 <$PDVDV,5,336,1142,2247,7740,1*63>
 18493507 <$PDVDV,5,336,1142,2247,7740,1*63>
 18493508 <$PDVDS,-6,117,8,38*4A>
 18493644 <$PDVDV,4,336,1142,2247,7740,1*62>
 18493744 <$PDVVT,2862,66*4E>
 18493794 <$PFLAU,0,1,2,1,0,,0,,*60>
 18493838 <$PDVDV,4,336,1142,2247,7740,1*62>
 18494058 <$GPRMC,140133.00,A,4700.81935,N,00648.78204,E,72.894,214.58,300706,,,A*54>
 18494060 <$PDVDS,-4,109,8,37*48>
 18494075 <$PGRMZ,7228,F,2*05>
 18494176 <$PDVDV,4,336,1142,2247,7740,1*62>
 18494176 <$GPGGA,140133.00,4700.81935,N,00648.78204,E,1,9,0.91,2318.7,M,48.0,M,,*5C>
 18494277 <$PDVDV,5,336,1142,2247,7740,1*63>
 18494487 <$PDVDV,5,336,1142,2247,7740,1*63>
 18494487 <$PDVDS,-5,114,8,36*44>
 18494638 <$PDVDV,5,336,1142,2247,7740,1*63>
 18494702 <$PDVVT,2862,66*4E>
 18494794 <$PFLAU,0,1,2,1,0,,0,,*60>
 18494839 <$PDVDV,4,336,1142,2247,7740,1*62>
 18495039 <$GPRMC,140134.00,A,4700.80238,N,00648.76570,E,72.432,213.37,300706,,,A*50>
 18495041 <$PDVDS,-3,90,8,36*7F>
 18495051 <$PGRMZ,7225,F,2*08>
 18495151 <$GPGGA,140134.00,4700.80238,N,00648.76570,E,1,7,1.84,2320.1,M,48.0,M,,*50>
 18495151 <$PDVDV,2,336,1142,2247,7740,1*64>
 18495253 <$PDVDV,1,336,1142,2247,7740,1*67>
 18495429 <$PDSWC,20,805008,100,121*57>
 18495472 <$PDVDV,0,336,1142,2247,7740,1*66>
 18495473 <$PDVDS,-4,100,8,37*41>
 18495499 <$PFLAE,A,0,0*33>
 18495640 <$PDVDV,0,335,1142,2247,7740,1*65>
 18495704 <$PDVVT,2862,66*4E>
 18495793 <$PFLAU,0,1,2,1,0,,0,,*60>
 18495841 <$PDVDV,-1,334,1142,2247,7740,1*48>
 18496049 <$GPRMC,140135.00,A,4700.78543,N,00648.74993,E,71.170,212.92,300706,,,A*50>
 18496051 <$PGRMZ,7225,F,2*08>
 18496062 <$PDVDS,-4,99,8,37*70>
 18496063 <$GPGGA,140135.00,4700.78543,N,00648.74993,E,1,7,1.84,2321.5,M,48.0,M,,*5B>
 18496163 <$PDVDV,-2,333,1142,2247,7740,1*4C>
 18496265 <$PDVDV,-3,332,1142,2247,7740,1*4C>
 18496441 <$PDVDV,-3,330,1142,2247,7740,1*4E>
 18496478 <$PDVDS,-4,95,8,37*7C>
 18496642 <$PDVDV,-4,329,1142,2248,7739,1*40>
 18496705 <$PDVVT,2862,66*4E>
 18496793 <$PFLAU,0,1,2,1,0,,0,,*60>
 18496840 <$PDVDV,-5,328,1142,2248,7739,1*40>
 18497042 <$GPRMC,140136.00,A,4700.76849,N,00648.73441,E,71.412,212.53,300706,,,A*53>
 18497042 <$PGRMZ,7232,F,2*0E>
 18497042 <$PDVDS,-5,105,8,37*45>
 18497043 <$GPGGA,140136.00,4700.76849,N,00648.73441,E,1,7,1.84,2322.2,M,48.0,M,,*50>
 18497043 <$PDVDV,-5,327,1142,2248,7739,1*4F>
 18497401 <$PDVDV,-4,327,1142,2248,7739,1*4E>
 18497465 <$PDVDV,-3,326,1142,2248,7739,1*48>
 18497476 <$PDVDS,-5,110,8,37*41>
 18497664 <$PDVDV,-2,326,1142,2248,7739,1*49>
 18497720 <$PDVVT,2862,66*4E>
 18497792 <$PFLAU,0,1,2,1,0,,0,,*60>
 18497839 <$PDVDV,-1,326,1142,2248,7739,1*4A>
 18498043 <$GPRMC,140137.00,A,4700.75138,N,00648.71870,E,72.918,212.49,300706,,,A*5D>
 18498045 <$PGRMZ,7228,F,2*05>
 18498060 <$PDVDS,-6,114,8,37*46>
 18498061 <$GPGGA,140137.00,4700.75138,N,00648.71870,E,1,7,1.84,2322.5,M,48.0,M,,*56>
 18498161 <$PDVDV,0,326,1142,2248,7739,1*66>
 18498265 <$PDVDV,0,326,1142,2248,7739,1*66>
 18498600 <$PDVDV,1,327,1142,2248,7739,1*66>
 18498600 <$PDVDS,-4,103,8,36*43>
 18498802 <$PDVDV,3,327,1142,2248,7739,1*64>
 18498802 <$PDVVT,2862,66*4E>
 18498803 <$PFLAU,0,1,2,1,0,,0,,*60>
 18498913 <$PDVDV,5,327,1142,2248,7739,1*62>
 18499015 <$GPRMC,140138.00,A,4700.73429,N,00648.70296,E,72.248,212.47,300706,,,A*52>
 18499015 <$PGRMZ,7242,F,2*09>
 18499015 <$PDVDS,-3,94,8,36*7B>
 18499326 <$GPGGA,140138.00,4700.73429,N,00648.70296,E,1,7,1.84,2323.3,M,48.0,M,,*5E>
 18499548 <$PDVDV,6,328,1142,2249,7738,1*6E>
 18499591 <$PDVDV,8,329,1142,2249,7738,1*61>
 18499694 <$PDVDV,10,330,1142,2249,7738,1*50>
 18499694 <$PDVDS,-3,94,8,36*7B>
 18499695 <$PDVDV,11,331,1142,2249,7738,1*50>
 18499795 <$PDVVT,2862,66*4E>
 18499795 <$PFLAU,0,1,2,1,0,,0,,*60>
 18499909 <$PDVDV,12,332,1142,2249,7738,1*50>
 18500258 <$GPRMC,140139.00,A,4700.71743,N,00648.68703,E,72.529,213.38,300706,,,A*57>
 18500460 <$PGRMZ,7242,F,2*09>
 18500471 <$PDVDS,-3,95,8,36*7A>
 18500616 <$GPGGA,140139.00,4700.71743,N,00648.68703,E,1,7,1.84,2324.6,M,48.0,M,,*50>
 18500716 <$PDVDV,12,332,1142,2249,7738,1*50>
 18500716 <$PDVDV,12,333,1142,2250,7737,1*56>
 18500717 <$PDVDV,12,333,1142,2250,7737,1*56>
 18500717 <$PDSWC,20,805008,100,121*57>
 18500717 <$PDVDS,-7,121,8,36*40>
 18500718 <$PDVDV,11,333,1142,2250,7737,1*55>
 18500718 <$PDVVT,2862,66*4E>
 18500819 <$PFLAU,0,1,2,1,0,,0,,*60>
 18500932 <$PDVDV,10,332,1142,2250,7737,1*55>
 18501052 <$GPRMC,140140.00,A,4700.70078,N,00648.67077,E,72.402,214.26,300706,,,A*5C>
 18501054 <$PDVDS,-8,129,8,35*44>
 18501091 <$PGRMZ,7242,F,2*09>
 18501092 <$GPGGA,140140.00,4700.70078,N,00648.67077,E,1,7,1.84,2326.4,M,48.0,M,,*5B>
 18501118 <$PDVDV,9,332,1142,2250,7737,1*6D>
 18501242 <$PDVDV,9,331,1142,2252,7736,1*6D>
 18501441 <$PDVDV,9,330,1142,2252,7736,1*6C>
 18501472 <$PDVDS,-5,107,8,35*45>
 18501642 <$PDVDV,9,330,1142,2252,7736,1*6C>
 18501708 <$PDVVT,2862,66*4E>
 18501795 <$PFLAU,0,1,2,1,0,,0,,*60>
 18501842 <$PDVDV,9,329,1142,2252,7736,1*64>
 18502046 <$GPRMC,140141.00,A,4700.68390,N,00648.65424,E,72.884,214.21,300706,,,A*54>
 18502048 <$PDVDS,-5,110,8,34*42>
 18502067 <$PGRMZ,7252,F,2*08>
 18502167 <$GPGGA,140141.00,4700.68390,N,00648.65424,E,1,7,1.84,2328.7,M,48.0,M,,*5B>
 18502167 <$PDVDV,10,329,1142,2252,7736,1*5C>
 18502270 <$PDVDV,10,329,1142,2252,7736,1*5C>
 18502443 <$PDVDV,11,329,1142,2253,7735,1*5F>
 18502471 <$PDVDS,-5,106,8,35*44>
 18502647 <$PDVDV,11,328,1142,2253,7735,1*5E>
 18502784 <$PDVVT,2862,66*4E>
 18502794 <$PFLAU,0,1,2,1,0,,0,,*60>
 18502843 <$PDVDV,11,328,1142,2253,7735,1*5E>
 18503043 <$GPRMC,140142.00,A,4700.66705,N,00648.63795,E,72.656,213.23,300706,,,A*5A>
 18503052 <$PGRMZ,7266,F,2*0F>
 18503053 <$PDVDS,-5,117,8,36*47>
 18503154 <$GPGGA,140142.00,4700.66705,N,00648.63795,E,1,7,1.84,2332.0,M,48.0,M,,*5D>
 18503154 <$PDVDV,12,328,1142,2254,7734,1*5B>
 18503260 <$PDVDV,14,328,1142,2254,7734,1*5D>
 18503442 <$PDVDV,17,328,1142,2255,7733,1*58>
 18503470 <$PDVDS,-3,95,8,37*7B>
 18503643 <$PDVDV,20,328,1142,2255,7733,1*5C>
 18503708 <$PDVVT,2862,66*4E>
 18503793 <$PFLAU,0,1,2,1,0,,0,,*60>
 18503842 <$PDVDV,21,328,1142,2256,7732,1*5F>
 18504044 <$GPRMC,140143.00,A,4700.65008,N,00648.62189,E,72.288,213.02,300706,,,A*5C>
 18504046 <$PGRMZ,7279,F,2*01>
 18504056 <$PDVDS,-3,93,8,37*7D>
 18504057 <$GPGGA,140143.00,4700.65008,N,00648.62189,E,1,7,1.84,2335.4,M,48.0,M,,*5C>
 18504157 <$PDVDV,21,328,1142,2256,7732,1*5F>
 18504261 <$PDVDV,21,328,1142,2257,7731,1*5D>
 18504444 <$PDVDV,21,327,1142,2257,7731,1*52>
 18504470 <$PDVDS,-3,86,8,37*79>
 18504645 <$PDVDV,20,327,1142,2258,7730,1*5D>
 18504707 <$PDVVT,2862,66*4E>
 18504792 <$PFLAU,0,1,2,1,0,,0,,*60>
 18504844 <$PDVDV,19,326,1142,2259,7729,1*5F>
 18505042 <$GPRMC,140144.00,A,4700.63317,N,00648.60596,E,71.982,212.71,300706,,,A*5F>
 18505044 <$PGRMZ,7283,F,2*04>
 18505080 <$PDVDS,-3,98,8,37*76>
 18505142 <$GPGGA,140144.00,4700.63317,N,00648.60596,E,1,7,1.84,2338.2,M,48.0,M,,*53>
 18505242 <$PDVDV,18,324,1142,2259,7729,1*5C>
 18505242 <$PDVDV,17,324,1142,2260,7728,1*58>
 18505469 <$PDVDV,18,323,1142,2260,7728,1*50>
 18505500 <$PDVDS,-3,102,8,37*44>
 18505599 <$PDSWC,20,805008,100,120*56>
 18505644 <$PDVDV,19,323,1143,2261,7727,1*5E>
 18505708 <$PDVVT,2862,66*4E>
 18505792 <$PFLAU,0,1,2,1,0,,0,,*60>
 18505844 <$PDVDV,20,323,1143,2261,7727,1*54>
 18506064 <$GPRMC,140145.00,A,4700.61632,N,00648.58990,E,72.287,213.64,300706,,,A*57>
 18506066 <$PGRMZ,7290,F,2*06>
 18506082 <$PDVDS,-3,87,8,37*78>
 18506083 <$GPGGA,140145.00,4700.61632,N,00648.58990,E,1,7,1.84,2340.1,M,48.0,M,,*5F>
 18506407 <$PDVDV,22,323,1143,2262,7726,1*54>
 18506407 <$PDVDV,24,325,1143,2263,7725,1*56>
 18506510 <$PDVDV,24,326,1143,2263,7725,1*55>
 18506510 <$PDVDS,-2,90,8,37*7F>
 18506685 <$PDVDV,25,327,1143,2264,7724,1*53>
 18506711 <$PDVVT,2862,66*4E>
 18506792 <$PFLAU,0,1,2,1,0,,0,,*60>
 18506845 <$PDVDV,26,328,1143,2264,7724,1*5F>
 18507049 <$GPRMC,140146.00,A,4700.59973,N,00648.57343,E,72.188,214.96,300706,,,A*58>
 18507058 <$PGRMZ,7293,F,2*05>
 18507067 <$PDVDS,-6,120,8,36*40>
 18507068 <$GPGGA,140146.00,4700.59973,N,00648.57343,E,1,7,1.84,2341.4,M,48.0,M,,*52>
 18507168 <$PDVDV,26,329,1143,2264,7724,1*5E>
 18507269 <$PDVDV,26,330,1143,2265,7723,1*50>
 18507445 <$PDVDV,25,330,1143,2265,7723,1*53>
 18507472 <$PDVDS,-6,116,8,34*47>
 18507644 <$PDVDV,23,330,1143,2265,7723,1*55>
 18507709 <$PDVVT,2862,66*4E>
 18507796 <$PFLAU,0,1,2,1,0,,0,,*60>
 18507845 <$PDVDV,23,330,1143,2265,7723,1*55>
 18508050 <$GPRMC,140147.00,A,4700.58394,N,00648.55642,E,70.969,215.58,300706,,,A*5B>
 18508052 <$PDVDS,-3,98,8,33*72>
 18508063 <$PGRMZ,7300,F,2*0E>
 18508163 <$GPGGA,140147.00,4700.58394,N,00648.55642,E,1,8,1.75,2342.8,M,48.0,M,,*59>
 18508163 <$PDVDV,24,330,1143,2266,7722,1*50>
 18508264 <$PDVDV,24,330,1143,2266,7722,1*50>
 18508447 <$PDVDV,25,330,1143,2266,7722,1*51>
 18508473 <$PDVDS,-5,112,8,32*46>
 18508646 <$PDVDV,25,330,1143,2266,7722,1*51>
 18508710 <$PDVVT,2862,66*4E>
 18508794 <$PFLAU,0,1,2,1,0,,0,,*60>
 18508849 <$PDVDV,24,330,1143,2266,7722,1*50>
 18509047 <$GPRMC,140148.00,A,4700.56829,N,00648.53973,E,69.446,215.66,300706,,,A*59>
 18509049 <$PGRMZ,7307,F,2*09>
 18509086 <$PDVDS,-6,111,8,32*46>
 18509186 <$GPGGA,140148.00,4700.56829,N,00648.53973,E,1,8,1.75,2345.6,M,48.0,M,,*57>
 18509186 <$PDVDV,23,330,1143,2267,7721,1*55>
 18509286 <$PDVDV,21,330,1143,2267,7721,1*57>
 18509448 <$PDVDV,18,328,1143,2267,7721,1*54>
 18509475 <$PDVDS,-6,116,8,32*41>
 18509649 <$PDVDV,16,327,1143,2267,7721,1*55>
 18509712 <$PDVVT,2862,66*4E>
 18509800 <$PFLAU,0,1,2,1,0,,0,,*60>
 18509848 <$PDVDV,14,326,1143,2268,7720,1*58>
 18510050 <$GPRMC,140149.00,A,4700.55286,N,00648.52337,E,67.778,215.72,300706,,,A*5A>
 18510052 <$PGRMZ,7320,F,2*0C>
 18510068 <$PDVDS,-4,93,8,33*7E>
 18510069 <$GPGGA,140149.00,4700.55286,N,00648.52337,E,1,8,1.75,2349.3,M,48.0,M,,*58>
 18510169 <$PDVDV,13,325,1143,2268,7720,1*5C>
 18510289 <$PDVDV,13,323,1143,2269,7719,1*51>
 18510540 <$PDVDV,12,322,1143,2269,7719,1*51>
 18510540 <$PDVDS,-3,91,8,35*7D>
 18510647 <$PDVDV,10,321,1143,2270,7718,1*59>
 18510712 <$PDVVT,2862,66*4E>
 18510745 <$PDSWC,20,805008,100,121*57>
 18510792 <$PFLAU,0,1,2,1,0,,0,,*60>
 18510847 <$PDVDV,9,320,1143,2271,7717,1*6E>
 18511049 <$GPRMC,140150.00,A,4700.53762,N,00648.50735,E,67.568,215.45,300706,,,A*58>
 18511051 <$PGRMZ,7327,F,2*0B>
 18511061 <$PDVDS,-3,84,8,36*7A>
 18511162 <$GPGGA,140150.00,4700.53762,N,00648.50735,E,1,8,1.75,2352.7,M,48.0,M,,*53>
 18511162 <$PDVDV,8,318,1143,2271,7717,1*64>
 18511269 <$PDVDV,7,316,1143,2272,7716,1*67>
 18511460 <$PDVDV,7,315,1143,2273,7715,1*66>
 18511477 <$PDVDS,-3,87,8,38*77>
 18511649 <$PDVDV,7,313,1143,2273,7715,1*60>
 18511714 <$PDVVT,2862,66*4E>
 18511793 <$PFLAU,0,1,2,1,0,,0,,*60>
 18511849 <$PDVDV,8,312,1143,2274,7714,1*68>
 18512080 <$GPRMC,140151.00,A,4700.52276,N,00648.49156,E,65.545,216.24,300706,,,A*5A>
 18512082 <$PGRMZ,7334,F,2*09>
 18512092 <$PDVDS,-3,87,8,37*78>
 18512192 <$GPGGA,140151.00,4700.52276,N,00648.49156,E,1,8,1.75,2355.2,M,48.0,M,,*5A>
 18512192 <$PDVDV,9,311,1143,2275,7713,1*6C>
 18512298 <$PDVDV,9,310,1143,2275,7713,1*6D>
 18512450 <$PDVDV,10,310,1143,2276,7712,1*57>
 18512477 <$PDVDS,-4,89,8,37*71>
 18512650 <$PDVDV,10,309,1143,2278,7711,1*52>
 18512714 <$PDVVT,2862,66*4E>
 18512792 <$PFLAU,0,1,2,1,0,,0,,*60>
 18512850 <$PDVDV,10,309,1143,2278,7711,1*52>
 18513049 <$GPRMC,140152.00,A,4700.50801,N,00648.47568,E,66.213,216.56,300706,,,A*54>
 18513072 <$PGRMZ,7334,F,2*09>
 18513110 <$PDVDS,-5,101,8,36*40>
 18513110 <$GPGGA,140152.00,4700.50801,N,00648.47568,E,1,8,1.75,2356.0,M,48.0,M,,*57>
 18513211 <$PDVDV,10,309,1143,2278,7711,1*52>
 18513623 <$PDVDV,9,309,1144,2279,7710,1*6D>
 18513630 <$PDVDV,8,308,1144,2279,7710,1*6D>
 18513663 <$PDVDS,-5,98,8,35*72>
 18513697 <$PDVDV,7,307,1144,2280,7709,1*63>
 18513716 <$PDVVT,2862,66*4E>
 18513794 <$PFLAU,0,1,2,1,0,,0,,*60>
 18513851 <$PDVDV,6,307,1144,2280,7709,1*62>
 18514040 <$GPRMC,140153.00,A,4700.49328,N,00648.45952,E,66.456,217.14,300706,,,A*5A>
 18514041 <$PGRMZ,7344,F,2*0E>
 18514057 <$PDVDS,-3,82,8,35*7F>
 18514162 <$GPGGA,140153.00,4700.49328,N,00648.45952,E,1,8,1.75,2356.1,M,48.0,M,,*58>
 18514162 <$PDVDV,4,305,1144,2280,7709,1*62>
 18514263 <$PDVDV,1,305,1144,2280,7709,1*67>
 18514452 <$PDVDV,0,304,1144,2280,7709,1*67>
 18514480 <$PDVDS,-4,92,8,34*78>
 18514652 <$PDVDV,-2,303,1144,2280,7709,1*4F>
 18514718 <$PDVVT,2862,66*4E>
 18514792 <$PFLAU,0,1,2,1,0,,0,,*60>
 18514854 <$PDVDV,-4,301,1144,2280,7709,1*4B>
 18515056 <$GPRMC,140154.00,A,4700.47825,N,00648.44291,E,67.147,217.51,300706,,,A*55>
 18515058 <$PDVDS,-5,103,8,34*40>
 18515076 <$PGRMZ,7341,F,2*0B>
 18515176 <$GPGGA,140154.00,4700.47825,N,00648.44291,E,1,9,0.91,2354.7,M,48.0,M,,*5C>
 18515176 <$PDVDV,-6,301,1144,2280,7709,1*49>
 18515283 <$PDVDV,-7,300,1144,2280,7709,1*49>
 18515453 <$PDVDV,-7,299,1144,2280,7709,1*48>
 18515479 <$PDVDS,-4,89,8,34*72>
 18515655 <$PDVDV,-6,299,1144,2280,7709,1*49>
 18515719 <$PDVVT,2862,66*4E>
 18515791 <$PFLAU,0,1,2,1,0,,0,,*60>
 18515854 <$PDVDV,-5,299,1144,2280,7709,1*4A>
 18515887 <$PDSWC,20,805008,100,121*57>
 18516047 <$GPRMC,140155.00,A,4700.46333,N,00648.42601,E,67.656,218.16,300706,,,A*59>
 18516049 <$PGRMZ,7320,F,2*0C>
 18516059 <$PDVDS,-6,113,8,34*42>
 18516160 <$GPGGA,140155.00,4700.46333,N,00648.42601,E,1,9,0.91,2352.6,M,48.0,M,,*5C>
 18516160 <$PDVDV,-3,301,1144,2280,7709,1*4C>
 18516272 <$PDVDV,-1,302,1144,2279,7710,1*43>
 18516453 <$PDVDV,0,304,1144,2279,7710,1*69>
 18516483 <$PDVDS,-6,119,8,34*48>
 18516653 <$PDVDV,2,307,1144,2279,7710,1*68>
 18516719 <$PDVVT,2862,66*4E>
 18516792 <$PFLAU,0,1,2,1,0,,0,,*60>
 18516853 <$PDVDV,5,309,1144,2279,7710,1*61>
 18517053 <$GPRMC,140156.00,A,4700.44855,N,00648.40874,E,68.402,218.93,300706,,,A*5C>
 18517055 <$PDVDS,-5,110,8,34*42>
 18517092 <$PGRMZ,7324,F,2*08>
 18517193 <$GPGGA,140156.00,4700.44855,N,00648.40874,E,1,9,0.91,2350.8,M,48.0,M,,*54>
 18517193 <$PDVDV,6,312,1143,2278,7711,1*6F>
 18517304 <$PDVDV,6,314,1143,2278,7711,1*69>
 18517481 <$PDVDV,6,316,1143,2278,7711,1*6B>
 18517504 <$PDVDS,-6,116,8,34*47>
 18517655 <$PDVDV,5,318,1143,2278,7711,1*66>
 18517720 <$PDVVT,2862,66*4E>
 18517792 <$PFLAU,0,1,2,1,0,,0,,*60>
 18517855 <$PDVDV,4,319,1143,2276,7712,1*6B>
 18518049 <$GPRMC,140157.00,A,4700.43373,N,00648.39150,E,67.946,218.18,300706,,,A*55>
 18518051 <$PGRMZ,7320,F,2*0C>
 18518067 <$PDVDS,-5,103,8,34*40>
 18518168 <$GPGGA,140157.00,4700.43373,N,00648.39150,E,1,9,0.91,2350.2,M,48.0,M,,*56>
 18518168 <$PDVDV,3,320,1143,2276,7712,1*66>
 18518273 <$PDVDV,2,320,1143,2276,7712,1*67>
 18518465 <$PDVDV,1,320,1143,2276,7712,1*64>
 18518484 <$PDVDS,-4,100,8,33*45>
 18518658 <$PDVDV,0,319,1143,2275,7713,1*6D>
 18518721 <$PDVVT,2862,66*4E>
 18518792 <$PFLAU,0,1,2,1,0,,0,,*60>
 18518856 <$PDVDV,0,319,1143,2275,7713,1*6D>
 18519055 <$GPRMC,140158.00,A,4700.41892,N,00648.37436,E,67.687,218.62,300706,,,A*58>
 18519056 <$PGRMZ,7320,F,2*0C>
 18519056 <$PDVDS,-3,84,8,33*7F>
 18519056 <$GPGGA,140158.00,4700.41892,N,00648.37436,E,1,9,0.91,2350.2,M,48.0,M,,*54>
 18519156 <$PDVDV,-1,318,1143,2275,7713,1*40>
 18519258 <$PDVDV,-1,318,1143,2275,7713,1*40>
 18519458 <$PDVDV,-2,318,1143,2275,7713,1*43>
 18519484 <$PDVDS,-3,88,8,34*74>
 18519658 <$PDVDV,-3,317,1143,2275,7713,1*4D>
 18519722 <$PDVVT,2862,66*4E>
 18519793 <$PFLAU,0,1,2,1,0,,0,,*60>
 18519859 <$PDVDV,-4,317,1143,2275,7713,1*4A>
 18520044 <$GPRMC,140159.00,A,4700.40435,N,00648.35706,E,67.377,219.37,300706,,,A*50>
 18520044 <$PGRMZ,7320,F,2*0C>
 18520044 <$PDVDS,-4,94,8,35*7F>
 18520044 <$GPGGA,140159.00,4700.40435,N,00648.35706,E,1,9,0.91,2349.7,M,48.0,M,,*5A>
 18520145 <$PDVDV,-5,316,1143,2275,7713,1*4A>
 18520311 <$PDVDV,-6,316,1143,2275,7713,1*49>
 18520457 <$PDVDV,-8,315,1143,2275,7713,1*44>
 18520484 <$PDVDS,-5,101,8,36*40>
 18520657 <$PDVDV,-10,314,1143,2275,7713,1*7C>
 18520722 <$PDVVT,2862,66*4E>
 18520792 <$PFLAU,0,1,2,1,0,,0,,*60>
 18520858 <$PDVDV,-12,313,1143,2275,7713,1*79>
 18521068 <$GPRMC,140200.00,A,4700.38996,N,00648.33966,E,67.356,219.81,300706,,,A*54>
 18521068 <$PGRMZ,7314,F,2*0B>
 18521068 <$PDVDS,-6,109,8,36*4B>
 18521069 <$PDSWC,20,805008,100,121*57>
